pn,pe,pd,vn,ve,vd,an,ae,ad,roll,pitch,yaw,q0,q1,q2,q3,lat,lng,alt,sat,ax,ay,az,gx,gy,gz,mx,my,mz,baro_temp,baro_press,baro_alt,batt_voltage,batt_percent,launch_lat,launch_lng,launch_alt,system_status,system_time,rssi,snr,connection_status
0,0,0,0,0,0,0.216612607,0.004263985,-0.048459589,3.121167898,0.109543517,2.944333076,0.055469003,0.097821973,0.993854702,0.004762177,39.39006805,-8.289392471,214891,9,-0.116875999,0.052154999,-1.035048008,3.806250095,-0.761250019,0.288749993,-0.704824567,0.104537807,1.284157038,26.86000061,100053,106.4273453,4045,83,0,0,0,65538,527312,-110,8.25,TRUE
0,0,0,0,0,0,0.209796771,-0.012269641,-0.077347219,3.121757269,0.110267617,2.944362879,0.055801,0.097810648,0.993813634,0.004433555,39.39006805,-8.289392471,214867,9,-0.103760995,0.026900999,-0.940192997,8.688750267,-4.427500248,-0.0175,-0.695959806,0.104404122,1.283535004,26.87999916,100050,106.6783676,4042,83,0,0,0,65538,527612,-106,8.25,TRUE
0,0,0,0,0,0,0.20953311,0.005537255,-0.034213305,3.120112419,0.108628593,2.944216728,0.055066563,0.097857751,0.993870258,0.005328927,39.39006805,-8.289392471,214874,9,-0.114801995,0.034281999,-0.967032969,3.823750019,-0.971249998,-0.113750003,-0.707112789,0.104524598,1.278157473,26.84000015,100054,106.3427887,4044,83,0,0,0,65538,527913,-110,8.75,TRUE
0,0,0,0,0,0,0.226661459,-0.008099688,-0.000529945,3.120310068,0.107559696,2.944036961,0.054527543,0.097954623,0.993868649,0.005278002,39.39006805,-8.289392471,214823,9,-0.113215998,0.036111999,-1.017967939,9.108750343,-4.243750095,-0.236249998,-0.701397121,0.104067542,1.279066563,26.87999916,100044,107.1830521,4045,83,0,0,0,65538,528216,-108,8.25,TRUE
0,0,0,0,0,0,0.199602753,0.00772177,-0.042154074,3.123423815,0.109498806,2.943972826,0.055337206,0.098062925,0.993839741,0.00363288,39.39006805,-8.289392471,214754,8,-0.105407998,0.049043998,-1.015406013,0.174999997,1.120000005,0.166250005,-0.708828926,0.104510233,1.28058207,26.88999939,100038,107.6877365,4044,83,0,0,0,65538,528516,-108,9,TRUE
0,0,0,0,0,0,0.237632737,-0.011599357,-0.045080841,3.122052431,0.109958783,2.94388485,0.055634361,0.098057888,0.993795991,0.004288705,39.39006805,-8.289393425,214727,8,-0.127489999,0.032756999,-0.975268006,-0.253749996,2.380000114,0.612500012,-0.707976699,0.10389366,1.271822929,26.86000061,100050,106.6783676,4042,83,0,0,0,65538,528817,-106,9,TRUE
0,0,0,0,0,0,0.221418142,0.017628597,-0.038637578,3.122900724,0.109958582,2.944259644,0.055591632,0.097896934,0.993821859,0.003877655,39.39006805,-8.289393425,214693,8,-0.115534,0.038734999,-0.986979961,0.560000002,0.673749983,0.192499995,-0.714548171,0.104593031,1.276096821,26.87000084,100041,107.4340668,4050,83,0,0,0,65538,529115,-110,9,TRUE
0,0,0,0,0,0,0.204955265,0.018548409,-0.009716809,3.119304895,0.108051166,2.944336653,0.05482021,0.097773075,0.993864119,0.005761527,39.39006805,-8.289393425,214630,8,-0.102601998,0.035319,-0.925491989,-1.321249962,2.992500067,0.140000001,-0.710551381,0.103836469,1.261832356,26.87999916,100033,108.1078644,4042,83,0,0,0,65538,529415,-110,9,TRUE
0,0,0,0,0,0,0.231745541,-0.015108865,-0.025255084,3.117230415,0.105575576,2.944170237,0.05369268,0.097819805,0.993911743,0.006910723,39.39006805,-8.289393425,214628,7,-0.128405005,0.027694,-1.024860978,1.25999999,1.47874999,0.035,-0.707400739,0.104320228,1.275633812,26.79000092,100022,109.0326767,4045,83,0,0,0,65538,529716,-108,8.75,TRUE
0,0,0,0,0,0,0.233004928,-0.024483681,0.001102448,3.118549824,0.106816076,2.943860531,0.054245245,0.097998776,0.993868709,0.006184943,39.39006805,-8.289393425,214550,7,-0.122792996,0.02318,-1.020529985,3.972500086,-0.49000001,0.288749993,-0.706548512,0.103703648,1.25973475,26.86000061,100052,106.5092545,4047,83,0,0,0,65538,530017,-110,9,TRUE
0,0,0,0,0,0,0.222193778,0.003420698,0.001793623,3.120470524,0.108056538,2.943860054,0.054767229,0.098041154,0.993841231,0.005168635,39.39006805,-8.289393425,214532,8,-0.105834998,0.041967999,-1.057983994,3.745000124,-0.629999995,0.245000005,-0.703965068,0.104705393,1.280357599,26.87000084,100051,106.593811,4042,83,0,0,0,65538,530318,-111,8.75,TRUE
0,0,0,0,0,0,0.218459457,-0.010630295,0.004130483,3.12040019,0.109010823,2.94392705,0.055244457,0.09799847,0.993819475,0.005158185,39.39006805,-8.289394379,214461,8,-0.105285995,0.027145,-0.97575599,1.995000005,0.446249992,0.0175,-0.709688306,0.104360469,1.267325282,26.81999969,100027,108.6125412,4045,83,0,0,0,65538,530619,-110,9.25,TRUE
0,0,0,0,0,0,0.213368014,-0.002340851,-0.058695018,3.121025324,0.110325858,2.943957806,0.055866707,0.097991094,0.993790567,0.004783247,39.39006805,-8.289394379,214443,8,-0.101991996,0.05246,-0.981428981,10.47375011,-5.40749979,-0.026250001,-0.697962761,0.104310133,1.283741117,26.87999916,100042,107.3521576,4044,83,0,0,0,65538,530919,-112,9.25,TRUE
0,0,0,0,0,0,0.237632483,-0.020194434,0.015689135,3.120411634,0.110080652,2.943803787,0.055775385,0.098052487,0.993788242,0.005096114,39.39006805,-8.289395332,214472,8,-0.086375996,0.045261998,-1.016687036,-1.452499986,2.668750048,0.49000001,-0.70140034,0.103728935,1.262937784,26.87000084,100058,106.0045776,4047,83,0,0,0,65538,531221,-110,8.5,TRUE
0,0,0,0,0,0,0.228087574,-0.008791547,-0.001029789,3.122235298,0.109635495,2.943879604,0.055464678,0.098068975,0.993808031,0.004213842,39.39006805,-8.289395332,214474,8,-0.099918,0.048129,-1.082993984,-0.113750003,2.861249924,0.096249998,-0.700248957,0.104492955,1.281501532,26.87999916,100069,105.0797653,4045,83,0,0,0,65538,531521,-106,8.75,TRUE
0,0,0,0,0,0,0.221729711,0.001566049,-0.02715075,3.126303196,0.11344707,2.944121599,0.057157997,0.098035373,0.993718922,0.002009959,39.39007187,-8.289396286,214462,8,-0.101320997,0.036539,-0.970692992,13.99125004,-7.358749866,0.043749999,-0.697107136,0.104049988,1.275874496,26.86000061,100032,108.1924133,4042,83,0,0,0,65538,531822,-106,9,TRUE
0,0,0,0,0,0,0.198667035,0.021181364,-0.054537714,3.12169075,0.111804783,2.944210291,0.056568202,0.097871952,0.993761361,0.004386279,39.39007187,-8.289396286,214455,8,-0.091499999,0.059597,-0.921038985,1.408750057,0.262499988,0.174999997,-0.707113266,0.104471132,1.280046701,26.87999916,100075,104.5750809,4047,83,0,0,0,65538,532123,-110,8.75,TRUE
0,0,0,0,0,0,0.21546112,0.00805869,-0.001318514,3.120827436,0.109812573,2.944207907,0.055620946,0.097864777,0.993814468,0.00491389,39.39007187,-8.289396286,214419,8,-0.121267997,0.026718,-0.986308992,1.548750043,0.524999976,0.402500004,-0.696532369,0.104351804,1.28204,26.88999939,100036,107.8542023,4042,83,0,0,0,65538,532423,-112,9,TRUE
0,0,0,0,0,0,0.222383365,0.008471456,0.003422141,3.120951176,0.108946562,2.943929911,0.055185504,0.09801285,0.993823171,0.00488764,39.39007187,-8.289396286,214281,8,-0.125964999,0.025193,-1.030167937,6.431250095,-1.828750014,0.314999998,-0.700826406,0.103923813,1.274561405,26.85000038,100037,107.7722855,4052,84,0,0,0,65538,532725,-108,8.75,TRUE
0,0,0,0,0,0,0.215422273,0.002820566,-0.010348618,3.119124413,0.108136833,2.943814278,0.054873176,0.098026678,0.993834436,0.005832599,39.39007187,-8.289396286,214313,8,-0.091377996,0.046664998,-0.948427975,3.736249924,-1.391250014,0.113750003,-0.705683053,0.104494989,1.278882027,26.88999939,100060,105.8381119,4054,84,0,0,0,65538,533025,-109,8.75,TRUE
0,0,0,0,0,0,0.214389458,0.004468288,-0.02090764,3.119288445,0.108367853,2.943640471,0.054980401,0.098115668,0.993819952,0.005734858,39.39007187,-8.28939724,214310,8,-0.100039996,0.046909001,-0.996190965,3.596250057,-1.04124999,0.236249998,-0.697680235,0.103944212,1.278788805,26.90999985,100058,106.0045776,4054,84,0,0,0,65538,533327,-106,8.25,TRUE
0,0,0,0,0,0,0.191771463,-0.009327003,-0.027103186,3.119169474,0.107691377,2.943384409,0.054650825,0.098246187,0.993828118,0.00582062,39.39007187,-8.28939724,214327,8,-0.081983998,0.029219,-0.987833977,3.762500048,-0.962499976,0.455000013,-0.705110192,0.104582943,1.286024094,26.86000061,100049,106.7629242,4047,83,0,0,0,65538,533627,-106,8.5,TRUE
0,0,0,0,0,0,0.136968493,0.059917841,-0.083597898,3.120205879,0.107754126,2.94336772,0.054631334,0.098280951,0.993823886,0.005301737,39.39007187,-8.28939724,214311,8,-0.106139995,-0.027206,-0.681491971,1.25999999,1.014999986,0.078749999,-0.701393545,0.104441807,1.284322858,26.87000084,100053,106.4273453,4045,83,0,0,0,65538,533928,-110,8.5,TRUE
0,0,0,0,0,0,0.457298696,-0.155675381,-0.708469033,3.110212088,0.115308046,2.941577196,0.05888471,0.098799996,0.993438482,0.009837979,39.39007187,-8.28939724,214242,8,-0.440907985,-0.060024001,-1.378904939,3.412499905,0.00875,0.910000026,-0.696242511,0.10475222,1.286643624,26.89999962,100045,107.0984955,4050,83,0,0,0,65538,534229,-108,8.5,TRUE
0,0,0,0,0,0,0.251680434,-0.136290729,0.680036664,3.092931747,0.103412293,2.936992645,0.053871561,0.100758672,0.993451715,0.018904151,39.39007187,-8.28939724,214167,8,0.012627,-0.15738,-1.175225973,1.837499976,-0.174999997,-0.07,-0.70567733,0.105100922,1.293265224,26.82999992,100037,107.7722855,4047,83,0,0,0,65538,534531,-110,9,TRUE
0,0,0,0,0,0,0.178065851,0.008441507,-0.070674181,3.100666285,0.114291713,2.935759544,0.058890767,0.101438217,0.993172526,0.014463652,39.39007187,-8.28939724,214119,8,-0.065818995,0.133834004,-0.894015968,3.657500029,-0.840000033,0.638750017,-0.697106838,0.104085639,1.283901811,26.87000084,100034,108.0233078,4047,83,0,0,0,65538,534832,-108,8.75,TRUE
0,0,0,0,0,0,0.240989149,-0.024784207,0.00219965,3.109484196,0.108428322,2.935029507,0.055536099,0.102123387,0.993347228,0.010366251,39.39007187,-8.28939724,214110,8,-0.088083997,0.081373997,-1.045661926,4.033750057,-0.892499983,0.253749996,-0.694820106,0.103956275,1.280052185,26.89999962,100052,106.5092545,4042,83,0,0,0,65538,535133,-110,8.5,TRUE
0,0,0,0,0,0,0.206301883,-0.001044494,-0.038622439,3.113828897,0.108380787,2.934965372,0.055290695,0.102276169,0.993365407,0.008208173,39.39007187,-8.28939724,214087,8,-0.097599998,0.038063999,-0.966239989,3.727499962,-0.892499983,0.38499999,-0.700820863,0.104511932,1.289621234,26.81999969,100039,107.6031799,4044,83,0,0,0,65538,535434,-112,8.25,TRUE
0,0,0,0,0,0,0.217478275,0.0007365,-0.026300788,3.116703749,0.108389087,2.934969664,0.055147707,0.102353126,0.993375778,0.006779518,39.39007187,-8.28939724,214070,8,-0.100466996,0.047091998,-0.991066992,3.66624999,-0.92750001,0.420000017,-0.706824124,0.104800262,1.289035916,26.88999939,100046,107.0139389,4045,83,0,0,0,65538,535735,-110,8.5,TRUE
0,0,0,0,0,0,0.193490177,0.007921707,-0.051277936,3.118719339,0.109329507,2.935306072,0.055510212,0.102234617,0.993377864,0.005738738,39.39007187,-8.28939724,214026,8,-0.093451999,0.041906998,-0.889624,-2.651250124,3.176249981,0.612500012,-0.709683895,0.104823835,1.284459472,26.90999985,100046,107.0139389,4044,83,0,0,0,65538,536036,-111,8.5,TRUE
0,0,0,0,0,0,0.200807288,0.006092744,-0.044482768,3.120239496,0.110525273,2.93591404,0.056024414,0.101966083,0.993384182,0.004938657,39.39007187,-8.28939724,214004,8,-0.096685,0.043065999,-1.004426003,6.413750172,-3.053750038,0.27125001,-0.705395281,0.104681544,1.283902168,26.92000008,100079,104.239502,4042,83,0,0,0,65538,536338,-110,8.75,TRUE
0,0,0,0,0,0,0.217605621,0.00559798,-0.019007862,3.121363163,0.110527888,2.936872244,0.055966567,0.101519704,0.993430138,0.004406865,39.39007187,-8.28939724,214041,8,-0.094122998,0.041113999,-0.963678002,-0.166250005,1.163750052,0.297500014,-0.707397342,0.104676664,1.293186426,26.88999939,100067,105.2488708,4042,83,0,0,0,65538,536639,-110,8.5,TRUE
0,0,0,0,0,0,0.21495378,-0.008875202,-0.057062149,3.119299173,0.1090381,2.937160015,0.055330914,0.101331338,0.993479371,0.005516937,39.39007187,-8.28939724,214062,8,-0.117180996,0.028486999,-1.069573998,4.147500038,-1.732499957,0.262499988,-0.707976699,0.10389366,1.271262884,26.92000008,100037,107.7722855,4049,83,0,0,0,65538,536940,-110,8.25,TRUE
0,0,0,0,0,0,0.228513926,0.002315952,0.000555515,3.119296074,0.108612373,2.937606335,0.055118501,0.101112708,0.993512392,0.005552554,39.39007187,-8.28939724,214031,8,-0.097355999,0.030499998,-0.972095966,9.546250343,-3.701250076,0.052500002,-0.70540458,0.103701361,1.265382767,26.90999985,100045,107.0984955,4044,83,0,0,0,65538,537240,-111,8.75,TRUE
0,0,0,0,0,0,0.209189892,0.010847265,-0.012921631,3.118415833,0.107701205,2.937733173,0.054710101,0.101033762,0.993542433,0.006040088,39.39007187,-8.28939724,213979,8,-0.088206001,0.052703999,-0.900481999,8.688750267,-4.025000095,0.043749999,-0.713975966,0.104609698,1.278244495,26.87000084,100054,106.3427887,4047,83,0,0,0,65538,537541,-111,8.5,TRUE
0,0,0,0,0,0,0.203099146,-0.00760925,0.005393982,3.119292974,0.107118264,2.938153982,0.054375198,0.100853056,0.993580163,0.005645391,39.39007187,-8.28939724,213935,8,-0.114496998,0.052338,-1.041025996,4.016250134,-0.892499983,0.455000013,-0.709402382,0.104350984,1.280625463,26.88999939,100043,107.267601,4050,83,0,0,0,65538,537842,-108,8.5,TRUE
0,0,0,0,0,0,0.225026935,0.013149031,-0.008884132,3.118854046,0.107145444,2.9383986,0.05441013,0.100719295,0.993590295,0.0058688,39.39007187,-8.28939724,213866,8,-0.100528002,0.052703999,-1.009915948,5.591249943,-2.493750095,0.358750015,-0.713117123,0.104706004,1.274630427,26.92000008,100061,105.7535553,4047,83,0,0,0,65538,538143,-110,8.5,TRUE
0,0,0,0,0,0,0.217119128,-0.011253428,0.018178582,3.118877649,0.107041053,2.938615799,0.054356463,0.100612894,0.993604183,0.00586834,39.39007568,-8.289398193,213900,8,-0.116388001,0.035379998,-1.033339977,6.159999847,-2.563750029,0.174999997,-0.702824831,0.104311012,1.276105523,26.89999962,100050,106.6783676,4042,83,0,0,0,65538,538444,-110,9,TRUE
0,0,0,0,0,0,0.190684617,0.003078396,-0.068092883,3.119591713,0.10781718,2.938723326,0.054705642,0.100572474,0.99359107,0.005476938,39.39007568,-8.289398193,213903,8,-0.109311998,0.061244,-0.980026007,11.85624981,-5.661250114,0.27125001,-0.701966166,0.104371659,1.274264216,26.92000008,100041,107.4340668,4042,83,0,0,0,65538,538745,-110,9,TRUE
0,0,0,0,0,0,0.218081966,-0.006094755,-0.04424119,3.120135069,0.108148664,2.938843966,0.054842498,0.100525253,0.993591607,0.005193325,39.39007568,-8.289398193,213878,8,-0.092170998,0.044468999,-1.068658948,-2.441250086,3.220000029,0.647499979,-0.706539035,0.104701661,1.28695786,26.93000031,100051,106.593811,4044,83,0,0,0,65538,539045,-110,8.75,TRUE
0,0,0,0,0,0,0.200668335,-0.007224405,-0.056319773,3.120063305,0.110187322,2.939146519,0.055857729,0.100355595,0.993550003,0.00513378,39.39007568,-8.289399147,213894,8,-0.104370996,0.032513,-0.981489956,-1.382500052,1.741250038,0.673749983,-0.702817857,0.105041698,1.294994116,26.88999939,100044,107.1830521,4042,83,0,0,0,65538,539346,-111,8.5,TRUE
0,0,0,0,0,0,0.227550685,-0.006219472,-0.040798485,3.119719267,0.109252848,2.939306736,0.055410568,0.100274146,0.993582189,0.005356662,39.39007568,-8.289399147,213911,8,-0.118705995,0.035928998,-0.951416969,0.201250002,1.741250038,0.314999998,-0.705678165,0.105011813,1.287546992,26.93000031,100051,106.593811,4044,83,0,0,0,65538,539647,-106,8.5,TRUE
0,0,0,0,0,0,0.205461249,0.010942657,0.016991258,3.118863821,0.108313777,2.939348459,0.054987051,0.100237504,0.993606627,0.005830561,39.39007568,-8.289399147,213899,8,-0.116692998,0.022204001,-0.979537964,8.321249962,-3.150000095,0.699999988,-0.703966081,0.104598455,1.2851156,26.89999962,100042,107.3521576,4042,83,0,0,0,65538,539948,-110,9,TRUE
0,0,0,0,0,0,0.206991315,0.000710628,-0.007957578,3.118170977,0.1078583,2.939335108,0.054795664,0.100228921,0.993615627,0.006197626,39.39007568,-8.289399147,213877,8,-0.098941997,0.071552999,-0.946231961,3.605000019,-0.65625,0.586250007,-0.703686059,0.103965223,1.279108882,26.88999939,100057,106.0891266,4042,83,0,0,0,65538,540249,-110,8.75,TRUE
0,0,0,0,0,0,0.208178818,0.002217806,0.034720778,3.118528366,0.10781949,2.939488411,0.054757997,0.100162946,0.9936257,0.006026162,39.39007568,-8.289399147,213841,8,-0.088510998,0.044774,-1.050786018,4.077499866,-0.997500002,0.551249981,-0.707106888,0.105148353,1.298164487,26.90999985,100048,106.8474731,4044,83,0,0,0,65538,540550,-111,8.75,TRUE
0,0,0,0,0,0,0.198796615,0.006471806,-0.041020095,3.119953156,0.108868122,2.939533949,0.05520707,0.100171477,0.993606806,0.005266215,39.39007568,-8.289399147,213822,8,-0.086131997,0.045444999,-0.974536002,3.569999933,1.120000005,0.498750001,-0.700821698,0.10442283,1.281103134,26.94000053,100060,105.8381119,4042,83,0,0,0,65538,540851,-108,8.5,TRUE
0,0,0,0,0,0,0.214974195,-0.002216847,-0.060165882,3.119733095,0.108395651,2.939736128,0.054983016,0.100068331,0.993627369,0.005405055,39.39007568,-8.289399147,213813,8,-0.087839998,0.057949997,-0.928602993,12.05749989,-5.661250114,0.524999976,-0.700530708,0.104947992,1.293292046,26.86000061,100037,107.7722855,4047,83,0,0,0,65538,541152,-110,9,TRUE
0,0,0,0,0,0,0.216731027,0.02362721,-0.070742726,3.119985342,0.10905613,2.93981266,0.055298224,0.10003148,0.993613124,0.005248339,39.39007568,-8.289399147,213862,8,-0.116082996,0.056180999,-1.027179003,5.451250076,-2.248749971,0.612500012,-0.695097566,0.104856849,1.29537344,26.88999939,100050,106.6783676,4042,83,0,0,0,65538,541453,-111,9,TRUE
0,0,0,0,0,0,0.200981811,0.028668942,-0.07252425,3.118206263,0.107421875,2.939906359,0.054575421,0.099949494,0.993655384,0.00621777,39.39007568,-8.289399147,213844,8,-0.112178996,0.051422998,-1.010098934,3.351249933,-1.181249976,0.314999998,-0.708538115,0.105017573,1.292747259,26.92000008,100055,106.2582397,4047,83,0,0,0,65538,541754,-108,8.75,TRUE
0,0,0,0,0,0,0.210197344,-7.11E-05,0.03824687,3.120019436,0.107544139,2.939472675,0.054546595,0.100213684,0.99363631,0.005298668,39.39007568,-8.289399147,213843,8,-0.099674001,0.040991999,-0.981977999,-1.522500038,3.456249952,0.201250002,-0.703391135,0.104900271,1.300521255,26.85000038,100041,107.4340668,4044,83,0,0,0,65538,542055,-109,8.5,TRUE
0,0,0,0,0,0,0.205389723,0.015217768,-0.082786202,3.119789124,0.107660681,2.939280748,0.054616377,0.100302778,0.993626058,0.005402076,39.39007568,-8.289400101,213847,8,-0.108397,0.042822,-0.933299959,-3.823750019,4.541250229,0.568750024,-0.707393646,0.105068736,1.296926022,26.89999962,100059,105.9200211,4044,83,0,0,0,65538,542357,-109,8.5,TRUE
0,0,0,0,0,0,0.214540124,-0.002255856,-0.009718299,3.119905233,0.107671127,2.939369917,0.054615639,0.100260697,0.993627667,0.005346105,39.39007568,-8.289400101,213833,8,-0.105651997,0.045261998,-0.983015001,4.042500019,-0.944999993,0.27125001,-0.711109579,0.105281167,1.300262094,26.92000008,100052,106.5092545,4044,83,0,0,0,65538,542657,-108,8.75,TRUE
0,0,0,0,0,0,0.202960685,-0.001317761,-0.025758386,3.118206501,0.106836364,2.939736605,0.054285128,0.100039244,0.993663132,0.006242655,39.3900795,-8.289400101,213832,8,-0.110470995,0.058681998,-0.96093297,6.912499905,-2.13499999,-0.087499999,-0.707108915,0.104934491,1.290880919,26.92000008,100030,108.3615265,4042,83,0,0,0,65538,542969,-106,8.25,TRUE
0,0,0,0,0,0,0.220405027,0.008026444,-0.005648375,3.116259336,0.107051447,2.939174652,0.054491393,0.100263394,0.993622243,0.00718423,39.3900795,-8.289400101,213821,8,-0.121511996,0.02806,-1.044258952,-3.053750038,4.296249866,0.621249974,-0.707394123,0.10501527,1.294055223,26.89999962,100054,106.3427887,4045,83,0,0,0,65538,543258,-108,8.5,TRUE
0,0,0,0,0,0,0.201118916,0.004787814,-0.036337197,3.118401527,0.108001456,2.93975687,0.054853711,0.100025557,0.993637562,0.006087431,39.3900795,-8.289400101,213799,8,-0.102541,0.051789001,-0.939460993,-2.047499895,2.84375,0.621249974,-0.701393366,0.104459621,1.283226371,26.94000053,100048,106.8474731,4042,83,0,0,0,65538,543559,-110,9,TRUE
0,0,0,0,0,0,0.211467072,0.026932785,-0.060316086,3.119524717,0.107954256,2.939963102,0.054773115,0.09995655,0.993660092,0.005537536,39.3900795,-8.289401054,213821,8,-0.081739999,0.068563998,-0.95617497,8.023750305,-2.983750105,0.245000005,-0.705961525,0.105288625,1.30190146,26.93000031,100038,107.6877365,4045,83,0,0,0,65538,543859,-106,8.75,TRUE
0,0,0,0,0,0,0.233452499,0.023416275,-0.038580596,3.121724367,0.109958626,2.940414429,0.055657879,0.099774554,0.993626475,0.00435533,39.3900795,-8.289401054,213834,8,-0.088083997,0.047702,-1.029680014,8.697500229,-3.753750086,0.65625,-0.706537843,0.104826413,1.289083123,26.92000008,100065,105.417984,4039,82,0,0,0,65538,544160,-106,9,TRUE
0,0,0,0,0,0,0.216969803,0.000806748,0.018941164,3.121358871,0.108993918,2.940449715,0.055195685,0.09976206,0.993678212,0.004587186,39.3900795,-8.289401054,213748,9,-0.098026998,0.049105,-0.979903996,8.863750458,-3.99000001,0.323749989,-0.70625484,0.104513958,1.281821609,26.95999908,100042,107.3521576,4042,83,0,0,0,65538,544460,-110,9,TRUE
0,0,0,0,0,0,0.216371521,-0.003475016,-0.053375781,3.118453026,0.107221089,2.940617561,0.054460239,0.099610411,0.99371618,0.006125229,39.3900795,-8.289401054,213714,9,-0.092902996,0.029889999,-0.963006973,0.980000019,0.227500007,0.586250007,-0.709963739,0.105474904,1.295949936,26.95000076,100051,106.593811,4042,83,0,0,0,65538,544762,-112,8.75,TRUE
0,0,0,0,0,0,0.216081008,-0.002411301,-0.013990283,3.120671749,0.109713562,2.940385342,0.055588908,0.099760868,0.993626714,0.004889971,39.3900795,-8.289402008,213670,9,-0.101076998,0.039223,-1.003571987,2.397500038,-0.236249998,0.332500011,-0.700819314,0.10467232,1.285353661,26.90999985,100054,106.3427887,4042,83,0,0,0,65538,545063,-106,9.5,TRUE
0,0,0,0,0,0,0.223159447,-0.011345848,-0.02870661,3.120772362,0.110243417,2.940722704,0.055844735,0.099600248,0.993657291,0.004823362,39.3900795,-8.289402008,213677,9,-0.115777999,0.026595999,-0.958248973,8.802499771,-3.526250124,0.280000001,-0.704253852,0.104411922,1.279955626,26.95000076,100072,104.828743,4042,83,0,0,0,65538,545363,-110,9.25,TRUE
0,0,0,0,0,0,0.196966261,-0.000675164,-0.045064867,3.119970322,0.108623378,2.940773964,0.055081517,0.099556945,0.993673027,0.005304194,39.3900795,-8.289402008,213713,9,-0.098575994,0.030012,-0.957943976,9.100000381,-4.261250019,0.402500004,-0.704535067,0.104920402,1.289436936,26.94000053,100065,105.417984,4042,83,0,0,0,65538,545664,-106,8.75,TRUE
0,0,0,0,0,0,0.217321724,-0.001767593,-0.04564333,3.123097658,0.110256262,2.941055775,0.055735931,0.099491946,0.993653536,0.00367564,39.3900795,-8.289402008,213688,9,-0.105651997,0.037698001,-0.972339988,1.373749971,0.953750014,0.463750005,-0.704822063,0.104805134,1.290531397,26.93000031,100048,106.8474731,4044,83,0,0,0,65538,545966,-108,9,TRUE
0,0,0,0,0,0,0.206197605,0.002989435,-0.057183444,3.123526335,0.110471666,2.940965176,0.055821877,0.099546418,0.993641019,0.003449177,39.3900795,-8.289401054,213659,9,-0.095037997,0.039772,-0.959590971,6.833750248,-2.423749924,0.38499999,-0.695387423,0.10445644,1.289229751,26.94000053,100056,106.1736832,4045,83,0,0,0,65538,546267,-108,8.5,TRUE
0,0,0,0,0,0,0.197480112,0.015121995,-0.040491045,3.120932817,0.109010354,2.941055536,0.055225071,0.099440567,0.993679285,0.004814091,39.39007568,-8.289401054,213677,9,-0.106139995,0.029707,-0.96794796,3.849999905,-0.647499979,0.201250002,-0.70796591,0.10503424,1.294614911,26.94000053,100056,106.1736832,4050,83,0,0,0,65538,546568,-107,9,TRUE
0,0,0,0,0,0,0.215225667,0.005284099,-0.035233319,3.118645668,0.106994629,2.940675735,0.054338925,0.099582955,0.99370712,0.006041959,39.39007568,-8.289402008,213700,9,-0.114557996,0.035868,-1.018577933,13.125,-6.965000153,-0.043749999,-0.711969554,0.105077945,1.285674453,26.86000061,100038,107.6877365,4042,83,0,0,0,65538,546869,-108,8.75,TRUE
0,0,0,0,0,0,0.210223854,-6.45E-05,-0.031524122,3.119609356,0.107552238,2.940716743,0.054567572,0.099585183,0.993700385,0.005536094,39.39007568,-8.289402008,213702,9,-0.098697998,0.050935,-1.023519039,0.280000001,2.345000029,0.778750002,-0.704531491,0.10529466,1.289793253,26.93000031,100036,107.8542023,4042,83,0,0,0,65538,547170,-108,8.75,TRUE
0,0,0,0,0,0,0.21690625,0.003389298,-0.033856034,3.119926453,0.108292423,2.940670013,0.054919571,0.099610463,0.993677735,0.00533992,39.39007568,-8.289401054,213642,9,-0.105651997,0.046726,-1.025714993,4.121250153,-0.743749976,0.840000033,-0.707674861,0.105559394,1.298543692,26.95999908,100054,106.3427887,4042,83,0,0,0,65538,547470,-104,10,TRUE
0,0,0,0,0,0,0.20803149,-0.002101167,-0.08200109,3.119143963,0.106872603,2.940702915,0.054253265,0.099584952,0.99371624,0.005801205,39.39007568,-8.289402008,213641,9,-0.090706997,0.041906998,-0.958736956,3.727499962,-0.743749976,0.769999981,-0.707963347,0.105301559,1.290069222,26.89999962,100059,105.9200211,4042,83,0,0,0,65538,547772,-108,9,TRUE
0,0,0,0,0,0,0.264766574,-0.013811553,0.12710464,3.119186163,0.107285403,2.940527201,0.05445683,0.099669099,0.993693829,0.00575465,39.39007568,-8.289401054,213623,9,-0.103272997,0.058743,-1.094156981,6.536250114,-2.45875001,0.621249974,-0.703106403,0.104766041,1.291676164,26.94000053,100047,106.92939,4044,83,0,0,0,65538,548073,-105,9,TRUE
0,0,0,0,0,0,0.155416548,0.009387348,0.446055651,3.12227869,0.106631458,2.941260099,0.053976338,0.09939339,0.993753552,0.004270171,39.39007187,-8.289401054,213655,9,-0.056669001,0.173788995,-1.18108201,9.449999809,-4.375,0.551249981,-0.710540712,0.104959235,1.287820816,26.94000053,100070,104.9952087,4044,83,0,0,0,65538,548374,-110,9.75,TRUE
0,0,0,0,0,0,0.014502568,0.060877644,0.242531776,3.116799355,0.105701819,2.93996048,0.053791456,0.099898919,0.993696511,0.007005419,39.39007187,-8.289401054,213669,9,-0.440297991,-0.431696981,-1.26471293,3.421250105,-0.769999981,0.341250002,-0.709971368,0.104672931,1.276266813,26.96999931,100049,106.7629242,4042,83,0,0,0,65538,548700,-110,9,TRUE
0,0,0,0,0,0,0.233735651,-0.12260177,0.518076897,3.106547356,0.118847884,2.937776089,0.060841896,0.100555941,0.993184447,0.011367524,39.39007187,-8.289401054,213662,9,-0.090096995,0.172568992,-0.522404015,4.375,-0.778750002,-0.096249998,-0.702529907,0.105246074,1.29387784,26.92000008,100046,107.0139389,4042,83,0,0,0,65538,548976,-108,8.25,TRUE
0,0,0,0,0,0,0.200531587,0.015679475,0.055003047,3.107253313,0.104020812,2.936377048,0.053454123,0.101441346,0.993516207,0.011739563,39.39007187,-8.289400101,213659,9,-0.077592,0.077348001,-0.96318996,-2.913749933,3.928750038,0.805000007,-0.701390207,0.104798235,1.290955305,26.93000031,100044,107.1830521,4042,83,0,0,0,65538,549277,-106,8.75,TRUE
0,0,0,0,0,0,0.218660921,0.013135966,-0.055835843,3.110309601,0.10487739,2.936194181,0.053725231,0.10160473,0.993501604,0.010171661,39.39007187,-8.289400101,213663,9,-0.102601998,0.057095997,-0.91701299,0.560000002,1.855000019,1.04124999,-0.700538158,0.104163833,1.274612546,26.96999931,100046,107.0139389,4044,83,0,0,0,65538,549576,-108,9,TRUE
0,0,0,0,0,0,0.216146812,-0.006043458,-0.004755259,3.115559816,0.106106959,2.935889244,0.05406981,0.101885945,0.993478894,0.007491027,39.39007187,-8.289400101,213631,9,-0.106505997,0.037393,-0.959590971,3.779999971,-1.049999952,0.498750001,-0.709392548,0.10538464,1.288155794,26.94000053,100041,107.4340668,4044,83,0,0,0,65538,549876,-110,9.25,TRUE
0,0,0,0,0,0,0.215281516,0.006340492,0.03321588,3.119040966,0.107995719,2.936475277,0.054828435,0.101672888,0.993470609,0.005679814,39.39007187,-8.289400101,213595,9,-0.101199001,0.042273,-0.949831009,4.086249828,-0.971249998,0.280000001,-0.707678795,0.1051495,1.291000485,26.96999931,100048,106.8474731,4042,83,0,0,0,65538,550176,-106,8.75,TRUE
0,0,0,0,0,0,0.206408441,0.019070093,-0.074869037,3.119447231,0.108114377,2.936629057,0.054866292,0.101606473,0.993476033,0.005476089,39.39007187,-8.289400101,213585,9,-0.092658997,0.045933001,-1.002779007,7.175000191,-3.543750048,0.376249999,-0.716257036,0.105344996,1.28863728,26.97999954,100056,106.1736832,4045,83,0,0,0,65538,550477,-108,8.75,TRUE
0,0,0,0,0,0,0.221354514,0.003640065,-0.005390584,3.119719267,0.10855867,2.937052488,0.055071887,0.1014001,0.993487298,0.005329719,39.39007187,-8.289400101,213616,9,-0.097539,0.056180999,-0.998996973,4.865000248,-1.776250005,0.358750015,-0.699390292,0.104571424,1.284723759,26.95999908,100040,107.5186234,4049,83,0,0,0,65538,550779,-111,9,TRUE
0,0,0,0,0,0,0.215590775,-0.014215207,-0.039133966,3.121191502,0.110515669,2.937320709,0.055968255,0.101291977,0.993452072,0.00450538,39.39007187,-8.289400101,213641,9,-0.096989997,0.043309998,-0.978866994,5.731249809,-1.557500005,-0.087499999,-0.710255802,0.104842812,1.281799316,26.96999931,100042,107.3521576,4044,83,0,0,0,65538,551080,-110,8.25,TRUE
0,0,0,0,0,0,0.222167134,-0.004395369,0.015184045,3.120392323,0.109816857,2.937744856,0.055660736,0.101064421,0.993490279,0.004950026,39.39007187,-8.289400101,213655,9,-0.102541,0.03111,-0.979294002,3.587500095,-0.944999993,0.210000008,-0.709399521,0.104653955,1.283547163,26.96999931,100052,106.5092545,4042,83,0,0,0,65538,551381,-112,8.75,TRUE
0,0,0,0,0,0,0.20785822,0.014998405,-0.074563622,3.121095896,0.111627072,2.937852859,0.056523658,0.101016231,0.993449152,0.004510987,39.39007187,-8.289400101,213648,9,-0.090218998,0.060024001,-0.947146952,6.833750248,-1.855000019,0.210000008,-0.700248122,0.104582064,1.282039642,26.93000031,100043,107.267601,4042,83,0,0,0,65538,551681,-106,9.25,TRUE
0,0,0,0,0,0,0.215272605,-0.010394406,-0.066774786,3.120353937,0.110647097,2.938188553,0.056073733,0.100836515,0.99349165,0.004939227,39.39007187,-8.289400101,213657,9,-0.082898997,0.054899998,-0.968069971,8.303750038,-3.272500038,0.524999976,-0.709114075,0.104591005,1.278156281,26.95999908,100052,106.5092545,4040,82,0,0,0,65538,551983,-112,9.25,TRUE
0,0,0,0,0,0,0.223571077,0.010151864,0.031211257,3.122691631,0.11051701,2.93855834,0.055890407,0.100719742,0.993520558,0.00379451,39.39007187,-8.289400101,213652,9,-0.094183996,0.046360001,-1.06438899,4.025000095,-0.980000019,0.568750024,-0.70567745,0.1050831,1.290721655,26.96999931,100064,105.4998932,4052,84,0,0,0,65538,552286,-111,9,TRUE
0,0,0,0,0,0,0.229710147,-0.004618087,0.01767385,3.12218976,0.111047968,2.939207077,0.056178156,0.100378528,0.99353528,0.004035131,39.39007187,-8.289400101,213669,9,-0.110165998,0.038063999,-1.036756039,3.902499914,-0.752499998,0.192499995,-0.704821885,0.104822963,1.286915183,26.95999908,100038,107.6877365,4045,83,0,0,0,65538,552587,-107,9.25,TRUE
0,0,0,0,0,0,0.219075724,-0.015963562,-0.047766626,3.120733738,0.109855376,2.939487934,0.055658411,0.100207381,0.993577957,0.004826945,39.39007187,-8.289400101,213677,9,-0.098758996,0.049105,-1.067072988,3.867500067,-0.848749995,0.043749999,-0.707109213,0.104898855,1.284813762,26.98999977,100050,106.6783676,4042,83,0,0,0,65538,552888,-110,8.75,TRUE
0,0,0,0,0,0,0.210607946,0.010977738,-0.000934064,3.118523598,0.107802041,2.939633131,0.054748956,0.100092061,0.993637085,0.006033554,39.39007187,-8.289400101,213729,9,-0.093085997,0.053801998,-1.015406013,3.928750038,-0.560000002,0.446249992,-0.70796591,0.10503424,1.288874865,26.98999977,100051,106.593811,4044,83,0,0,0,65538,553190,-111,8.25,TRUE
0,0,0,0,0,0,0.232734606,-0.019260617,0.033646464,3.117341042,0.106932528,2.939609289,0.054374419,0.100091793,0.993695915,0.006665977,39.39007187,-8.289400101,213689,9,-0.117486,0.030012,-1.052737951,4.09499979,-1.067499995,0.00875,-0.703679979,0.1046068,1.291859508,26.94000053,100048,106.8474731,4045,83,0,0,0,65538,553490,-114,9,TRUE
0,0,0,0,0,0,0.225003332,-0.009355596,-0.048819065,3.116633177,0.107121706,2.939523935,0.054504197,0.100112632,0.993682086,0.007005793,39.39007187,-8.289399147,213657,9,-0.123829998,0.050995998,-1.065364957,4.226250172,-0.831250012,0.481249988,-0.708544731,0.10432253,1.279085994,26.98999977,100055,106.2582397,4044,83,0,0,0,65538,553790,-108,8.5,TRUE
0,0,0,0,0,0,0.22497569,-0.004133328,-0.036656201,3.119536161,0.108695976,2.939670801,0.055142239,0.100092605,0.993614435,0.00548586,39.39007187,-8.289399147,213637,9,-0.095220998,0.043249,-1.072685003,3.99000001,-0.533749998,0.393750012,-0.704532027,0.105241194,1.291822314,26.96999931,100049,106.7629242,4049,83,0,0,0,65538,554091,-108,9.25,TRUE
0,0,0,0,0,0,0.232064903,-0.012496115,0.034635544,3.119510889,0.108106375,2.939750433,0.054850303,0.100058436,0.993637979,0.005530565,39.39007187,-8.289399147,213642,9,-0.112178996,0.035868,-1.008024931,4.042500019,-0.717500031,0.148750007,-0.699954212,0.105428018,1.300113797,26.97999954,100037,107.7722855,4047,83,0,0,0,65538,554391,-110,8.25,TRUE
0,0,0,0,0,0,0.20659925,0.006677801,-0.064291596,3.118821144,0.107606411,2.939555407,0.054637343,0.10013923,0.993635178,0.005893331,39.39007187,-8.289399147,213635,9,-0.077165,0.051789001,-1.023885012,3.981250048,-0.717500031,0.323749989,-0.697391033,0.104273342,1.281197786,26.94000053,100054,106.3427887,4044,83,0,0,0,65538,554692,-110,8.75,TRUE
0,0,0,0,0,0,0.217432171,0.000713662,0.048975945,3.119125605,0.107586674,2.939555168,0.054612268,0.10014797,0.993636906,0.005742948,39.39007187,-8.289399147,213630,9,-0.105285995,0.042456001,-1.043161035,7.49875021,-2.502500057,0.376249999,-0.706255972,0.104389213,1.28011632,26.98999977,100059,105.9200211,4045,83,0,0,0,65538,554992,-108,8.5,TRUE
0,0,0,0,0,0,0.192259207,0.015858196,-0.059938848,3.121056318,0.10787636,2.939553499,0.054659344,0.100199535,0.993635297,0.004768747,39.39007187,-8.289399147,213609,9,-0.087717995,0.070942998,-0.998081982,3.832499981,-0.857500017,0.463750005,-0.70225364,0.104220748,1.281471372,26.97999954,100065,105.417984,4045,83,0,0,0,65538,555293,-110,8.75,TRUE
0,0,0,0,0,0,0.216300443,-0.013134219,-0.038639784,3.120695591,0.108895443,2.939956188,0.055182468,0.099981613,0.993627846,0.004907514,39.39007187,-8.289398193,213554,9,-0.084362999,0.05917,-1.01809001,3.911250114,-0.875,0.455000013,-0.700534225,0.104573727,1.284675837,26.95000076,100065,105.417984,4044,83,0,0,0,65538,555593,-114,9,TRUE
0,0,0,0,0,0,0.237802178,-0.011443959,0.027618647,3.120635748,0.109755464,2.939951181,0.055612605,0.099975146,0.99360311,0.00489361,39.39007187,-8.28939724,213497,9,-0.119559996,0.056058999,-1.034865022,4.996250153,-1.653750062,0.463750005,-0.707396686,0.104747951,1.286000967,27,100035,107.9387512,4042,83,0,0,0,65538,555894,-112,9.25,TRUE
0,0,0,0,0,0,0.213258296,0.009598704,-0.046821475,3.12099123,0.109644629,2.940294027,0.055538289,0.099819608,0.993637383,0.004732396,39.39007568,-8.28939724,213459,9,-0.099612996,0.047945999,-1.040903926,4.09499979,-0.805000007,0.157499999,-0.701390028,0.104816049,1.287618876,27.01000023,100057,106.0891266,4044,83,0,0,0,65538,556195,-110,9.5,TRUE
0,0,0,0,0,0,0.222337961,-0.005458073,-0.026689351,3.120527506,0.108998813,2.940553665,0.055240605,0.099679857,0.993656695,0.005002419,39.39007568,-8.28939724,213441,9,-0.079482995,0.041906998,-0.97270596,1.461249948,0.997500002,0.428750008,-0.705107152,0.104903728,1.285469294,26.96999931,100056,106.1736832,4044,83,0,0,0,65538,556498,-108,9,TRUE
0,0,0,0,0,0,0.215935588,0.016118845,0.029658079,3.120010853,0.107873991,2.940721512,0.054707028,0.099592999,0.993699491,0.005320617,39.39007568,-8.28939724,213322,9,-0.093695998,0.046177,-0.999058008,4.147500038,-1.111250043,0.323749989,-0.704827607,0.10421703,1.274211884,27,100060,105.8381119,4050,83,0,0,0,65538,556799,-108,8.75,TRUE
0,0,0,0,0,0,0.219483793,-0.014114101,-0.03504473,3.119647264,0.108106382,2.940716982,0.054841027,0.099580653,0.993682921,0.005489256,39.39007568,-8.28939724,213288,9,-0.110409997,0.029707,-0.983075976,14.06124973,-7.148749828,0.043749999,-0.706824839,0.104728974,1.287821293,27.01000023,100046,107.0139389,4044,83,0,0,0,65538,557100,-109,8.5,TRUE
0,0,0,0,0,0,0.225224748,0.01085023,0.007040024,3.116089582,0.106048435,2.940300941,0.053997654,0.099708423,0.993705153,0.007350041,39.39007568,-8.28939724,213221,9,-0.094549999,0.033427998,-0.924576998,-1.251250029,2.589999914,0.166250005,-0.699103475,0.104651041,1.289602041,26.95999908,100047,106.92939,4044,83,0,0,0,65538,557400,-108,8.75,TRUE
0,0,0,0,0,0,0.198869228,0.018460115,-0.09666568,3.117959738,0.107034594,2.940102577,0.054394267,0.099851929,0.993685246,0.006365554,39.39007568,-8.289396286,213141,9,-0.091316998,0.059292,-0.918720961,3.701250076,-0.944999993,0.201250002,-0.705393434,0.104877576,1.285001993,26.98999977,100040,107.5186234,4044,83,0,0,0,65538,557702,-116,9.5,TRUE
0,0,0,0,0,0,0.213295311,0.002224642,-0.003531396,3.117220163,0.105989471,2.940341949,0.053909257,0.099735282,0.993765295,0.006793796,39.39007568,-8.289396286,213173,9,-0.106932998,0.058743,-1.012416959,2.178750038,1.198750019,0.236249998,-0.70568341,0.104459353,1.285134792,27.01000023,100056,106.1736832,4045,83,0,0,0,65538,558002,-110,9,TRUE
0,0,0,0,0,0,0.213461056,0.001614443,-0.024901628,3.118688107,0.107750751,2.940297365,0.054713443,0.09976577,0.993668497,0.005972369,39.39007568,-8.289395332,213212,9,-0.100466996,0.044957001,-0.992103994,3.928750038,-0.892499983,0.280000001,-0.700255096,0.103851378,1.278690934,26.95999908,100051,106.593811,4047,83,0,0,0,65538,558303,-105,8.25,TRUE
0,0,0,0,0,0,0.212712049,0.005051361,0.021801472,3.122483253,0.110180229,2.940311909,0.055727478,0.099861048,0.993669569,0.003965306,39.39007568,-8.289395332,213652,9,-0.088206001,0.065453,-0.90298301,-5.048749924,3.902499914,0.568750024,-0.70253247,0.104978748,1.287643552,26.98999977,100060,105.8381119,4045,83,0,0,0,65538,558602,-109,9,TRUE
0,0,0,0,0,0,0.193059668,0.016173957,-0.037904799,3.121690273,0.109469354,2.940520525,0.055416424,0.099724412,0.99364388,0.004399801,39.3900795,-8.289395332,213862,9,-0.104005001,0.034098998,-0.99612999,0.280000001,1.181249976,0.551249981,-0.712545574,0.104651377,1.276403427,27.02000046,100048,106.8474731,4044,83,0,0,0,65538,558902,-110,9,TRUE
0,0,0,0,0,0,0.218678206,0.007672064,0.032396913,3.119318008,0.108395763,2.940645218,0.055001311,0.099605076,0.993671298,0.005636391,39.3900795,-8.289394379,214021,9,-0.128099993,0.033062,-1.01491797,4.821249962,-1.294999957,0.402500004,-0.707686722,0.104311891,1.275750041,26.95000076,100060,105.8381119,4044,83,0,0,0,65538,559203,-112,9,TRUE
0,0,0,0,0,0,0.232295662,-0.01599502,-0.031144619,3.119980097,0.110100791,2.940627337,0.055815097,0.099618077,0.993626058,0.005220876,39.3900795,-8.289394379,214082,9,-0.120352998,0.058925997,-1.048529029,1.741250038,-0.00875,0.323749989,-0.689667881,0.104391448,1.28519845,26.98999977,100045,107.0984955,4049,83,0,0,0,65538,559504,-110,8.5,TRUE
0,0,0,0,0,0,0.213312268,0.005037326,-0.060304761,3.121603489,0.110655285,2.94081831,0.056007754,0.099572033,0.993650496,0.004392128,39.3900795,-8.289394379,214472,9,-0.101381995,0.044957001,-0.957211971,3.578750134,-0.962499976,0.236249998,-0.696539998,0.103549838,1.266697049,27.01000023,100044,107.1830521,4052,84,0,0,0,65538,559806,-114,9.5,TRUE
0,0,0,0,0,0,0.224828348,-0.019294677,0.007700205,3.119590998,0.108274847,2.941251278,0.054914668,0.099380262,0.993928313,0.005529642,39.3900795,-8.289394379,214651,9,-0.111813001,0.025681,-1.026263952,1.04124999,1.408750057,0.052500002,-0.703682661,0.104321651,1.273421407,27.01000023,100045,107.0984955,4044,83,0,0,0,65538,560111,-112,9,TRUE
0,0,0,0,0,0,0.208649233,0.005925953,-0.047906756,3.117779016,0.10623157,2.940906286,0.054001752,0.099455312,0.993748605,0.006517781,39.3900795,-8.289394379,214812,9,-0.098758996,0.049287997,-0.968436003,3.99000001,-0.997500002,0.743749976,-0.69710952,0.103800483,1.276663661,27,100042,107.3521576,4047,83,0,0,0,65538,560407,-112,9,TRUE
0,0,0,0,0,0,0.225575879,0.006805602,0.003988504,3.119549513,0.107981622,2.94069767,0.054783192,0.099593364,0.993700862,0.005544079,39.3900795,-8.289393425,214945,9,-0.108030997,0.051544998,-1.02205503,3.998749971,-1.049999952,0.498750001,-0.697673082,0.10469272,1.284121037,27,100050,106.6783676,4050,83,0,0,0,65538,560708,-105,9.25,TRUE
0,0,0,0,0,0,0.230378896,-0.022175066,0.013946891,3.120518208,0.108924203,2.940695763,0.05520371,0.099609241,0.993664682,0.005014671,39.3900795,-8.289393425,215019,9,-0.116570994,0.022936,-1.033218026,2.423749924,-0.174999997,0.349999994,-0.703109801,0.104409605,1.279023528,27.02000046,100049,106.7629242,4045,83,0,0,0,65538,561011,-108,8.75,TRUE
0,0,0,0,0,0,0.219449505,0.015258552,-0.03969413,3.119735241,0.107722551,2.94054389,0.054646533,0.09967199,0.993684053,0.005460093,39.3900795,-8.289393425,215123,9,-0.112361997,0.037758999,-1.00406003,-4.103750229,4.016250134,0.472499996,-0.71169126,0.104266495,1.272991419,26.98999977,100041,107.4340668,4034,82,0,0,0,65538,561311,-110,9,TRUE
0,0,0,0,0,0,0.216167912,0.006150124,-0.015223265,3.120564222,0.108522497,2.94068718,0.055001426,0.09962108,0.993685365,0.005012045,39.3900795,-8.289392471,215292,9,-0.101991996,0.044652,-1.008147001,0.306250006,0.980000019,0.717500031,-0.696818292,0.104361296,1.28189981,27,100045,107.0984955,4050,83,0,0,0,65538,561612,-104,9,TRUE
0,0,0,0,0,0,0.218019649,0.002771578,-0.024643958,3.120815754,0.109047949,2.94081521,0.055250142,0.099556498,0.993666232,0.004863777,39.3900795,-8.289392471,215648,9,-0.100345001,0.044895999,-0.993506968,8.96875,-3.946249962,0.140000001,-0.705398142,0.104378574,1.280280471,27.03000069,100056,106.1736832,4042,83,0,0,0,65538,561913,-111,9.25,TRUE
0,0,0,0,0,0,0.216529861,-0.002760153,-0.006021321,3.120248795,0.108787663,2.941287279,0.055147912,0.099308252,0.993694961,0.005171719,39.39008331,-8.289391518,215854,9,-0.103211999,0.034281999,-0.926346004,12.73124981,-6.763750076,0.201250002,-0.696819842,0.104200907,1.284067273,27.01000023,100054,106.3427887,4042,83,0,0,0,65538,562213,-111,9.25,TRUE
0,0,0,0,0,0,0.255231589,-0.024111904,0.118933797,3.118425846,0.107350901,2.940936565,0.054524645,0.099452615,0.99373734,0.006141223,39.39008331,-8.289390564,215928,9,-0.085521996,0.056302998,-0.887000978,-0.201250002,2.082499981,0.595000029,-0.697107017,0.104067817,1.276738167,27.04000092,100054,106.3427887,4042,83,0,0,0,65538,562512,-117,9,TRUE
0,0,0,0,0,0,0.129471555,-0.010167115,-0.610615432,3.12026906,0.119585626,2.941308022,0.060506985,0.099218078,0.993420005,0.004620597,39.3900795,-8.289390564,215970,9,-0.178120002,0.074419998,-1.676950932,2.327500105,0.533749998,0.043749999,-0.705108166,0.104796804,1.284627676,27.02000046,100047,106.92939,4045,83,0,0,0,65538,562813,-110,9.25,TRUE
0,0,0,0,0,0,0.069041878,0.164077625,-0.045587063,3.109729528,0.120172419,2.939823151,0.061328415,0.099625394,0.993279397,0.009782246,39.3900795,-8.28938961,215972,9,0.083204001,0.181413993,-0.950136006,3.946249962,-0.577499986,0.332500011,-0.699677229,0.104473986,1.281081915,27,100051,106.593811,4042,83,0,0,0,65538,563114,-105,9,TRUE
0,0,0,0,0,0,0.16959177,0.015110888,-0.281972229,3.11549139,0.107623026,2.940308809,0.054809358,0.099674076,0.993663013,0.007568068,39.3900795,-8.289388657,215999,9,-0.071492001,0.016043,-1.104954004,5.425000191,-2.24000001,0.314999998,-0.702823937,0.104400121,1.281403661,27.02000046,100045,107.0984955,4047,83,0,0,0,65538,563416,-108,9.25,TRUE
0,0,0,0,0,0,0.227933779,-0.021022856,0.07575047,3.109005928,0.114816673,2.93854785,0.058712162,0.100298531,0.993372083,0.010376398,39.3900795,-8.289388657,216062,9,-0.098270997,0.034587,-1.094888926,3.928750038,-1.111250043,0.831250012,-0.694533825,0.103982441,1.28219974,27.02000046,100032,108.1924133,4040,82,0,0,0,65538,563716,-106,9,TRUE
0,0,0,0,0,0,0.212922081,-0.003409987,-0.070079863,3.113212824,0.111107275,2.938089132,0.05666054,0.100692049,0.993487835,0.008462915,39.3900795,-8.289387703,216071,9,-0.101686999,0.044468999,-0.947512984,3.928750038,-0.82249999,0.367500007,-0.705969989,0.104397543,1.286860108,27,100045,107.0984955,4042,83,0,0,0,65538,564017,-106,9.25,TRUE
0,0,0,0,0,0,0.220294744,-0.000998696,-0.029128075,3.117804527,0.111083888,2.938120842,0.056418248,0.100801423,0.993490577,0.006182555,39.3900795,-8.289386749,216079,9,-0.103699997,0.043858998,-0.973254979,7.306250095,-2.870000124,0.341250002,-0.702250898,0.104505897,1.289409399,27,100041,107.4340668,4044,83,0,0,0,65538,564319,-110,9,TRUE
0,0,0,0,0,0,0.222289473,0.001059337,0.000841379,3.117249012,0.108479999,2.937968254,0.055155069,0.100877576,0.993528306,0.006586613,39.3900795,-8.289386749,216124,9,-0.101320997,0.052276999,-0.924394011,2.861249924,-0.49000001,0.533749998,-0.710255444,0.104878455,1.287866592,27.02000046,100048,106.8474731,4044,83,0,0,0,65538,564620,-108,9,TRUE
0,0,0,0,0,0,0.226473242,-0.008607917,-0.020979166,3.115816116,0.106761687,2.93800354,0.054374035,0.10083624,0.993569911,0.007387347,39.3900795,-8.289386749,216168,9,-0.098270997,0.052216001,-0.995214999,4.392499924,-1.058750033,0.061250001,-0.704822063,0.104805134,1.288011432,26.95999908,100053,106.4273453,4042,83,0,0,0,65538,564921,-112,9.25,TRUE
0,0,0,0,0,0,0.24146311,-0.030628579,0.009926319,3.117813587,0.107760593,2.937939167,0.054769479,0.100913726,0.993547261,0.006341931,39.3900795,-8.289386749,216171,9,-0.109067999,0.031293001,-1.014979005,4.173749924,-1.014999986,0.341250002,-0.707112253,0.104578063,1.281168461,27.02000046,100053,106.4273453,4045,83,0,0,0,65538,565222,-104,9.25,TRUE
0,0,0,0,0,0,0.228096873,-0.014390152,-0.010694087,3.118309259,0.108153865,2.937943697,0.054938901,0.100926757,0.993554831,0.006076103,39.3900795,-8.289385796,216279,9,-0.096868001,0.043736998,-1.034682035,3.998749971,-1.067499995,0.323749989,-0.699966192,0.104162693,1.276176453,27.03000069,100059,105.9200211,4042,83,0,0,0,65538,565520,-112,8.75,TRUE
0,0,0,0,0,0,0.2073282,0.010689211,-0.02804029,3.118355513,0.108063571,2.937622309,0.054893527,0.101083517,0.993524849,0.006048442,39.3900795,-8.289384842,216360,9,-0.095891997,0.035623997,-0.998752952,3.928750038,-0.769999981,0.481249988,-0.696250856,0.103878967,1.2751261,26.98999977,100036,107.8542023,4044,83,0,0,0,65538,565821,-112,8.25,TRUE
0,0,0,0,0,0,0.199732438,0.010201083,-0.041763663,3.118956566,0.109046012,2.937948227,0.0553496,0.100932181,0.993525088,0.005708819,39.3900795,-8.289384842,216444,9,-0.095281996,0.046055,-1.03925693,4.138750076,-0.857500017,0.192499995,-0.717694044,0.104608275,1.28143692,27.03000069,100050,106.6783676,4047,83,0,0,0,65538,566124,-108,8.75,TRUE
0,0,0,0,0,0,0.212240547,-0.011629581,-0.075103223,3.120275259,0.110499315,2.938196898,0.056004364,0.100831114,0.993494809,0.004986096,39.3900795,-8.289384842,216525,9,-0.108762994,0.032818001,-0.992896974,-0.122500002,1.75,0.586250007,-0.690241277,0.104250036,1.289325595,27.03000069,100049,106.7629242,4045,83,0,0,0,65538,566425,-108,8.75,TRUE
0,0,0,0,0,0,0.229647905,0.002922722,-0.040449083,3.119469404,0.109210886,2.938103914,0.055405531,0.100865416,0.993522465,0.005449628,39.3900795,-8.289383888,216543,9,-0.098270997,0.046786997,-1.052981973,2.213750124,0.699999988,0.323749989,-0.699104667,0.104526289,1.286496639,26.97999954,100052,106.5092545,4047,83,0,0,0,65538,566726,-110,8.5,TRUE
0,0,0,0,0,0,0.21551837,-0.013127225,-0.002696395,3.118499756,0.107799023,2.937968493,0.054753833,0.100917734,0.993549943,0.005999816,39.3900795,-8.289383888,216622,9,-0.102784999,0.031353999,-1.014734983,9.353750229,-3.981250048,0.245000005,-0.707397342,0.104676664,1.28450644,27.02000046,100062,105.6689987,4042,83,0,0,0,65538,567027,-106,8.5,TRUE
0,0,0,0,0,0,0.222540587,-0.010598007,-0.024500191,3.118495941,0.108244747,2.937993765,0.05497529,0.100901134,0.993538976,0.005979614,39.3900795,-8.289383888,216679,9,-0.099124998,0.029219,-0.954832971,9.40625,-4.445000172,0.0175,-0.701388299,0.104994267,1.291355133,27.04000092,100033,108.1078644,4042,83,0,0,0,65538,567328,-104,8.75,TRUE
0,0,0,0,0,0,0.21629326,-0.004483464,-0.035519421,3.117623568,0.108329058,2.937817335,0.055061728,0.100964166,0.993525386,0.006403968,39.3900795,-8.289383888,216811,9,-0.111141995,0.048799999,-1.003816009,5.853750229,-1.3125,0.726249993,-0.698823988,0.103964344,1.280864477,27,100055,106.2582397,4040,82,0,0,0,65538,567629,-111,9,TRUE
0,0,0,0,0,0,0.206904322,-0.001465026,0.033347607,3.117799997,0.107500717,2.93799901,0.054640952,0.100885838,0.993556857,0.006363641,39.3900795,-8.289383888,216870,9,-0.081373997,0.044895999,-0.950136006,8.470000267,-3.736249924,0.551249981,-0.703398049,0.104169592,1.274632692,27.03000069,100043,107.267601,4042,83,0,0,0,65538,567929,-110,9,TRUE
0,0,0,0,0,0,0.237233475,-0.020325724,0.02268064,3.119157553,0.107545763,2.938181877,0.0545942,0.100832202,0.993570507,0.005691667,39.3900795,-8.289383888,216945,9,-0.122975998,0.02806,-1.04242897,4.173749924,-0.936250031,0.691250026,-0.70625329,0.104674347,1.286374211,27.05999947,100046,107.0139389,4045,83,0,0,0,65538,568230,-108,8.75,TRUE
0,0,0,0,0,0,0.22841455,0.004518578,-0.049363077,3.120012522,0.109102532,2.938458204,0.055323299,0.100705855,0.993546784,0.00519514,39.3900795,-8.289382935,217044,9,-0.097416997,0.042456001,-0.950562954,8.881250381,-4.322500229,0.332500011,-0.716537416,0.105942592,1.298236609,26.96999931,100054,106.3427887,4044,83,0,0,0,65538,568530,-109,9,TRUE
0,0,0,0,0,0,0.230899185,-0.019667219,-0.000295818,3.12035203,0.109933011,2.938369036,0.055718862,0.100752346,0.993519306,0.004981608,39.3900795,-8.289382935,217112,9,-0.110226996,0.041906998,-0.980696976,6.615000248,-2.563750029,0.043749999,-0.706827164,0.104479469,1.28175056,27.01000023,100039,107.6031799,4042,83,0,0,0,65538,568831,-106,9,TRUE
0,0,0,0,0,0,0.200927794,0.013143191,-0.104564011,3.11945653,0.108346008,2.938542128,0.054975558,0.100654237,0.99356699,0.005512156,39.3900795,-8.289382935,217165,9,-0.094245002,0.053069998,-0.911400974,10.22875023,-4.882500172,-0.078749999,-0.695672691,0.10451939,1.285100579,27.03000069,100061,105.7535553,4042,83,0,0,0,65538,569131,-108,8.75,TRUE
0,0,0,0,0,0,0.210068211,0.007368084,0.00728035,3.120124578,0.108392701,2.938622952,0.054964907,0.100632019,0.993571401,0.005179991,39.3900795,-8.289382935,217227,9,-0.096745998,0.040991999,-0.999789953,-2.117500067,2.852499962,0.866249979,-0.700820863,0.104511932,1.285561204,27.01000023,100043,107.267601,4042,83,0,0,0,65538,569433,-110,9.25,TRUE
0,0,0,0,0,0,0.224345773,-0.007422256,-0.031162977,3.120167971,0.107816234,2.938660622,0.054676361,0.100619197,0.993589044,0.005188836,39.3900795,-8.289382935,217348,9,-0.103516996,0.060328998,-1.018700004,0.568750024,1.960000038,0.840000033,-0.697103441,0.104442067,1.282834291,27.02000046,100040,107.5186234,4045,83,0,0,0,65538,569734,-111,9.5,TRUE
0,0,0,0,0,0,0.221960455,-0.011201073,0.013136983,3.120553493,0.108898751,2.938663721,0.055194501,0.100619413,0.993561089,0.004942283,39.3900795,-8.289382935,217460,9,-0.108030997,0.059413999,-0.945865989,1.09375,-0.0175,0.595000029,-0.698248029,0.104390912,1.278235435,27.03000069,100049,106.7629242,4044,83,0,0,0,65538,570034,-110,9,TRUE
0,0,0,0,0,0,0.238362759,0.01334988,0.036481261,3.11898303,0.108307697,2.938638449,0.054979417,0.100597829,0.993584991,0.0057525,39.39008331,-8.289382935,217535,9,-0.115045995,0.061244,-1.055604935,0.761250019,0.769999981,0.665000021,-0.704537094,0.104706541,1.281033397,27.04999924,100061,105.7535553,4042,83,0,0,0,65538,570336,-106,9.25,TRUE
0,0,0,0,0,0,0.192325488,0.019223781,-0.080559909,3.119144678,0.108704209,2.938418627,0.055169348,0.100704812,0.993552744,0.005645528,39.39008331,-8.289383888,217675,9,-0.115228996,0.061365999,-0.966362,3.963750124,-1.09375,0.568750024,-0.699103832,0.104615398,1.286334753,27.02000046,100052,106.5092545,4042,83,0,0,0,65538,570636,-112,8.75,TRUE
0,0,0,0,0,0,0.200383455,0.017565234,-0.003234208,3.118867159,0.107643574,2.938416481,0.054656826,0.100706197,0.993577123,0.005837434,39.39008331,-8.289383888,217753,9,-0.082227997,0.058010999,-1.011868,4.130000114,-0.883750021,0.551249981,-0.699677408,0.104456156,1.285398126,27.04999924,100038,107.6877365,4042,83,0,0,0,65538,570937,-106,8.75,TRUE
0,0,0,0,0,0,0.220754161,-0.00307743,0.041940928,3.11764884,0.107532419,2.938246965,0.054663509,0.100758269,0.993568182,0.006443881,39.39008331,-8.289383888,217804,9,-0.135724992,0.023484999,-1.01650393,8.784999847,-3.946249962,0.463750005,-0.700248122,0.104582064,1.291279674,27.04000092,100049,106.7629242,4040,82,0,0,0,65538,571238,-104,9.25,TRUE
0,0,0,0,0,0,0.209136322,0.005113259,0.023048639,3.116938353,0.106181048,2.938285112,0.054028105,0.100732163,0.993604064,0.006866956,39.39008331,-8.289383888,217925,9,-0.080398001,0.061365999,-0.991798997,-1.951249957,2.204999924,0.840000033,-0.70224601,0.105022721,1.292334557,27.03000069,100050,106.6783676,4044,83,0,0,0,65538,571539,-108,9.25,TRUE
0,0,0,0,0,0,0.207977876,-0.00845179,-0.064981937,3.118381262,0.106632814,2.9378438,0.054181103,0.100986481,0.993574202,0.006114878,39.39008713,-8.289384842,218021,9,-0.106322996,0.044468999,-0.954832971,3.710000038,-0.901250005,0.595000029,-0.70053184,0.104823232,1.293266654,27.03000069,100047,106.92939,4042,83,0,0,0,65538,571840,-110,8.5,TRUE
0,0,0,0,0,0,0.205734164,0.002558878,-0.032210946,3.118779659,0.106564537,2.937901735,0.054126788,0.100969777,0.993582487,0.005922048,39.39008713,-8.289384842,218050,9,-0.089974999,0.068136998,-0.937691987,12.1362505,-5.836249828,0.183750004,-0.703105688,0.104837321,1.292610526,27.04999924,100060,105.8381119,4042,83,0,0,0,65538,572141,-110,9.25,TRUE
0,0,0,0,0,0,0.212739736,0.026258031,0.010875702,3.118662596,0.107476369,2.937941074,0.054585386,0.10093911,0.993559599,0.005934722,39.39008713,-8.289384842,218100,9,-0.110470995,0.031597998,-0.930676997,4.182499886,-1.811249971,0.883750021,-0.699102819,0.104722336,1.289556623,27,100057,106.0891266,4045,83,0,0,0,65538,572442,-118,9.25,TRUE
0,0,0,0,0,0,0.203715086,0.000808408,-0.001207948,3.117813826,0.106573328,2.937981844,0.054179762,0.100903086,0.993581355,0.006403662,39.39008713,-8.289384842,218157,9,-0.133528993,0.018238999,-1.038707972,7.875,-3.981250048,0.376249999,-0.709109008,0.105125651,1.294545054,27.04000092,100047,106.92939,4044,83,0,0,0,65538,572743,-105,9,TRUE
0,0,0,0,0,0,0.224445403,-0.015790053,-0.021381021,3.119457483,0.108115934,2.938129902,0.054862402,0.100861117,0.993552446,0.005512143,39.39008713,-8.289384842,218217,9,-0.113947995,0.029523998,-0.997227967,4.103750229,-0.980000019,0.341250002,-0.697102785,0.104513355,1.285868764,27.04999924,100043,107.267601,4042,83,0,0,0,65538,573044,-104,9,TRUE
0,0,0,0,0,0,0.211445168,0.000220443,0.00562489,3.118582249,0.108150743,2.938294888,0.054923307,0.100754894,0.99355799,0.005949828,39.39008713,-8.289384842,218264,9,-0.093451999,0.050202999,-1.026629925,-1.811249971,2.703749895,0.306250006,-0.695387721,0.104420796,1.284422517,27.04000092,100064,105.4998932,4042,83,0,0,0,65538,573345,-110,9.25,TRUE
0,0,0,0,0,0,0.221860096,-0.018536355,0.010799766,3.11905098,0.107166916,2.938215971,0.054411434,0.10081508,0.993580461,0.00576487,39.39008713,-8.289384842,218322,9,-0.105530001,0.028852999,-1.013759017,3.963750124,-1.618749976,0.00875,-0.699679613,0.104224481,1.274451137,27.04999924,100060,105.8381119,4042,83,0,0,0,65538,573645,-111,9.25,TRUE
0,0,0,0,0,0,0.23286216,0.004999331,0.016934752,3.118565559,0.107472375,2.938289881,0.054587219,0.100763477,0.993577778,0.005992691,39.39009094,-8.289385796,218406,9,-0.092048995,0.058437999,-0.975573003,-2.292500019,3.508749962,0.629999995,-0.702248871,0.104719751,1.284092784,27.04999924,100057,106.0891266,4044,83,0,0,0,65538,573947,-108,9.25,TRUE
0,0,0,0,0,0,0.204042315,0.024214469,-0.091972351,3.118639708,0.107712142,2.937815666,0.054704048,0.100998424,0.993545592,0.005930508,39.39009094,-8.289385796,218660,9,-0.098637,0.047335997,-1.052066922,12.09249973,-6.116250038,0.140000001,-0.694816709,0.10431271,1.286824822,27.02000046,100046,107.0139389,4045,83,0,0,0,65538,574248,-110,9,TRUE
0,0,0,0,0,0,0.210475504,-0.011778186,-0.086386621,3.120090723,0.108253643,2.93801856,0.054899111,0.100932658,0.993544877,0.005187293,39.39009094,-8.289385796,218796,9,-0.100101002,0.036844,-1.026629925,12.49499989,-6.142499924,-0.122500002,-0.691668987,0.104493499,1.29392457,27.04999924,100045,107.0984955,4044,83,0,0,0,65538,574549,-110,9,TRUE
0,0,0,0,0,0,0.211593032,0.002986357,-0.017531753,3.118643999,0.107597753,2.937965393,0.054646637,0.10092482,0.993555248,0.005938312,39.39009094,-8.289385796,218932,9,-0.087962002,0.064293995,-0.953612983,7.139999866,-2.099999905,0.647499979,-0.68938309,0.104275048,1.287856936,27.05999947,100035,107.9387512,4042,83,0,0,0,65538,574850,-108,9,TRUE
0,0,0,0,0,0,0.187929034,0.003539398,-0.066767633,3.118555546,0.107006133,2.938283205,0.054356389,0.100769334,0.993586183,0.006021061,39.39009094,-8.289385796,219057,9,-0.100345001,0.030438999,-0.928846955,5.136250019,-2.231250048,0.70875001,-0.699677229,0.104473986,1.29074192,27.03000069,100053,106.4273453,4042,83,0,0,0,65538,575151,-108,8.75,TRUE
0,0,0,0,0,0,0.211838484,0.00720964,-0.012072682,3.118904352,0.10705743,2.938195229,0.05436454,0.10082224,0.993581593,0.005842781,39.39009094,-8.289386749,219156,9,-0.106749997,0.032269001,-0.942571998,-0.752499998,2.091249943,0.70875001,-0.69195509,0.104485177,1.290960789,27.05999947,100047,106.92939,4044,83,0,0,0,65538,575452,-109,9.25,TRUE
0,0,0,0,0,0,0.216317251,0.0108724,-0.021184742,3.119150639,0.107534789,2.938215971,0.054588929,0.100815572,0.993574023,0.005696675,39.39009094,-8.289386749,219209,9,-0.098880999,0.043614998,-1.025532007,3.071249962,0.498750001,0.358750015,-0.703394532,0.104543842,1.28100884,27.05999947,100059,105.9200211,4045,83,0,0,0,65538,575752,-110,9.25,TRUE
0,0,0,0,0,0,0.211014405,-0.002780915,-0.031253576,3.117565632,0.106906638,2.938178062,0.0543571,0.10079632,0.993582785,0.006515331,39.39009094,-8.289386749,219300,9,-0.103699997,0.041540999,-0.98990798,5.74875021,-2.380000114,0.210000008,-0.693388879,0.104087062,1.277489305,27.03000069,100050,106.6783676,4044,83,0,0,0,65538,576053,-110,9.5,TRUE
0,0,0,0,0,0,0.216471598,-0.002105714,-0.019997358,3.116544247,0.10617657,2.937986135,0.054046866,0.100869656,0.993586123,0.007054887,39.39009094,-8.289386749,219369,9,-0.101259999,0.040991999,-0.990579009,-0.140000001,1.504999995,0.446249992,-0.697104633,0.104317315,1.273568869,27.04000092,100025,108.7816544,4042,83,0,0,0,65538,576354,-112,9.25,TRUE
0,0,0,0,0,0,0.204939082,0.003981485,-0.036732674,3.118193388,0.107686855,2.937626362,0.054714669,0.101080276,0.993534446,0.00614845,39.39009094,-8.289386749,219487,9,-0.086985998,0.040199,-0.969716966,2.537499905,-0.288749993,0.455000013,-0.692528665,0.104308099,1.286780596,27.05999947,100044,107.1830521,4044,83,0,0,0,65538,576655,-110,9,TRUE
0,0,0,0,0,0,0.229880467,-0.007477132,-0.237469256,3.116790771,0.10593234,2.937758684,0.053913966,0.10099148,0.993581533,0.006938785,39.39009094,-8.289386749,219565,9,0.051605999,0.094245002,-1.199137926,5.62624979,-0.92750001,0,-0.697960198,0.104577459,1.28647542,27.04000092,100052,106.5092545,4042,83,0,0,0,65538,576957,-108,9.5,TRUE
0,0,0,0,0,0,-0.045577295,0.248200506,-0.601912677,3.111942291,0.091102339,2.937399387,0.046797436,0.101171821,0.993852019,0.010097066,39.39009476,-8.289387703,219724,9,0.131943002,0.23808299,-0.384788007,-1.846250057,3.377500057,1.470000029,-0.691673338,0.10403014,1.275250316,27.04999924,100068,105.1643143,4045,83,0,0,0,65538,577258,-108,9.25,TRUE
0,0,0,0,0,0,0.055723403,0.026825879,-0.168201089,3.099859238,0.081632674,2.934264421,0.042728826,0.102578849,0.993851781,0.016524857,39.39009476,-8.289387703,219840,9,0.014579,0.307500988,-1.091534019,3.727499962,-0.901250005,0.595000029,-0.702816665,0.10516645,1.29431951,27.04999924,100045,107.0984955,4045,83,0,0,0,65538,577558,-110,9,TRUE
0,0,0,0,0,0,0.1814311,-0.060946871,0.00511694,3.1016922,0.093058653,2.931956053,0.048326291,0.103625856,0.993510604,0.014962301,39.39009476,-8.289388657,219939,9,-0.04087,0.102357998,-1.107638001,3.902499914,-0.691250026,0.638750017,-0.69166863,0.104529142,1.288511872,26.98999977,100045,107.0984955,4042,83,0,0,0,65538,577859,-110,8.75,TRUE
0,0,0,0,0,0,0.20024772,0.00720032,0.066522956,3.114367962,0.098270841,2.931530714,0.050258022,0.104093291,0.993443191,0.008378218,39.39009476,-8.289388657,220022,9,-0.083264999,0.062098,-0.908046007,7.603750229,-3.360000134,-0.087499999,-0.703393161,0.104686417,1.276297927,27.05999947,100053,106.4273453,4044,83,0,0,0,65538,578159,-108,9.25,TRUE
0,0,0,0,0,0,0.208135471,0.018499341,-0.051714599,3.117120266,0.101338148,2.931583881,0.051637292,0.104109339,0.993382812,0.006850514,39.39009476,-8.28938961,220132,9,-0.102418996,0.041967999,-0.946048975,5.573750019,-1.163750052,-0.043749999,-0.699385047,0.1051239,1.285036325,27.04999924,100040,107.5186234,4042,83,0,0,0,65538,578460,-110,9,TRUE
0,0,0,0,0,0,0.214468524,0.004560494,-0.032205999,3.119084835,0.104543455,2.931958199,0.053125031,0.103948049,0.993330181,0.005715673,39.39009857,-8.28938961,220203,9,-0.101076998,0.044957001,-0.98606497,3.815000057,-0.787500024,0.323749989,-0.699386239,0.104999147,1.28459084,27.03000069,100064,105.4998932,4044,83,0,0,0,65538,578761,-108,8.75,TRUE
