pn,pe,pd,vn,ve,vd,an,ae,ad,roll,pitch,yaw,q0,q1,q2,q3,lat,lng,alt,sat,ax,ay,az,gx,gy,gz,mx,my,mz,temp,press,batt_voltage,batt_percent,launch_lat,launch_lng,launch_alt,system_status,system_time,rssi,snr,connectionstatus
0.03494829684495926,0.150830939412117,-0.020119378343224525,0.03198098763823509,0.16418159008026123,-0.025903576985001564,0.0016504563391208649,0.018611352890729904,-0.006177365779876709,0.0238081943243742,0.053602803498506546,3.055135726928711,0.043555498123168945,-0.026248415932059288,0.013043038547039032,0.9989354014396667,0,0,0,0,-0.05685199797153473,0.0076249996200203896,0.9955809712409973,3.788749933242798,-0.6737499833106995,0.612500011920929,-35.784000396728516,-4.5360002517700195,-47.46000289916992,0.0,0.0,2879,0,0,0,0,9218,237856,-157,0.0,True
0.03484673053026199,0.15045587718486786,-0.020090492442250252,0.03173111379146576,0.16439953446388245,-0.025520751252770424,0.001382250338792801,0.020126590505242348,-0.0012732148170471191,0.023966869339346886,0.053669363260269165,3.0550737380981445,0.043571989983320236,-0.02628140151500702,0.013125917874276638,0.9988006353378296,0,0,0,0,-0.057339999824762344,0.008723000064492226,0.9964349865913391,4.261250019073486,-1.0674999952316284,0.7787500023841858,-36.119998931884766,-4.900000095367432,-47.362003326416016,0.0,0.0,2875,0,0,0,0,9218,237956,-157,0.0,True
0.034749675542116165,0.15011054277420044,-0.02005644328892231,0.031207233667373657,0.16516654193401337,-0.025650709867477417,0.001832369714975357,0.01921967975795269,-0.003470778465270996,0.025076456367969513,0.05388018488883972,3.0548174381256104,0.04371553659439087,-0.026360776275396347,0.01368776336312294,0.9987828731536865,0,0,0,0,-0.059108998626470566,0.009820999577641487,0.9954589605331421,4.821249961853027,-0.7262499928474426,0.6650000214576721,-36.21800231933594,-4.690000057220459,-48.13200378417969,0.0,0.0,2881,0,0,0,0,9218,238057,-157,0.0,True
0.034690823405981064,0.1501307189464569,-0.020067274570465088,0.03084477409720421,0.16722986102104187,-0.025821156799793243,0.004146229475736618,0.019556183367967606,-0.0020758509635925293,0.02477951906621456,0.05382385849952698,3.0554041862487793,0.04341815412044525,-0.02634311653673649,0.013530585914850235,0.9987984895706177,0,0,0,0,-0.0571569986641407,0.01012600027024746,0.9964349865913391,3.9549999237060547,-0.8400000333786011,0.6912500262260437,-36.16200256347656,-4.480000019073486,-47.85200119018555,0.0,0.0,2880,0,0,0,0,9218,238157,-157,0.0,True
0.034589365124702454,0.14973756670951843,-0.020040420815348625,0.03126879036426544,0.1671573519706726,-0.02585618570446968,0.004875116050243378,0.01984589174389839,-0.0011131763458251953,0.024061104282736778,0.05411875247955322,3.055880308151245,0.043172687292099,-0.026509003713726997,0.013171901926398277,0.9988117814064026,0,0,0,0,-0.05697399750351906,0.008295999839901924,0.99680095911026,3.7799999713897705,-0.8487499952316284,0.5950000286102295,-36.34400177001953,-4.676000118255615,-47.922000885009766,0.0,0.0,2882,0,0,0,0,9218,238258,-157,0.0,True
0.03505247086286545,0.15234455466270447,-0.020473873242735863,0.031840212643146515,0.170265793800354,-0.027065327391028404,0.003917276859283447,0.018615204840898514,-0.004855215549468994,0.024621671065688133,0.05422521010041237,3.0559544563293457,0.043173421174287796,-0.026544082909822464,0.013450417667627335,0.9990407824516296,0,0,0,0,-0.05709599703550339,0.01079699955880642,0.993628978729248,3.990000009536743,-0.8924999833106995,0.6737499833106995,-36.064002990722656,-4.8580002784729,-48.15999984741211,0.0,0.0,2887,0,0,0,0,9218,238377,-157,0.0,True
0.0342835895717144,0.14840185642242432,-0.019874613732099533,0.030263714492321014,0.1650429666042328,-0.025247063487768173,0.002214428037405014,0.01969228684902191,-0.0018714070320129395,0.02400566078722477,0.054009728133678436,3.0562334060668945,0.04300234839320183,-0.02645649015903473,0.013136605732142925,0.9988789558410645,0,0,0,0,-0.055021997541189194,0.008844999596476555,0.9960689544677734,4.383749961853027,-0.8224999904632568,0.7350000143051147,-35.53200149536133,-4.942000389099121,-47.3900032043457,0.0,0.0,2881,0,0,0,0,9218,238460,-157,0.0,True
0.03427504375576973,0.14852909743785858,-0.019904254004359245,0.029485827311873436,0.1650380939245224,-0.02486998587846756,0.004296161234378815,0.0199994258582592,-0.004586219787597656,0.024576811119914055,0.053808681666851044,3.0558512210845947,0.04319744557142258,-0.02634177729487419,0.013422702439129353,0.9988518953323364,0,0,0,0,-0.058132998645305634,0.009820999577641487,0.994970977306366,3.9024999141693115,-0.9800000190734863,0.6212499737739563,-35.97999954223633,-4.886000156402588,-47.75400161743164,0.0,0.0,2878,0,0,0,0,9218,238562,-157,0.0,True
0.03410641849040985,0.14790040254592896,-0.019827604293823242,0.02897774800658226,0.16509509086608887,-0.02493763528764248,0.003476615995168686,0.020087428390979767,-0.0021889805793762207,0.02514450065791607,0.053746532648801804,3.055584192276001,0.043332625180482864,-0.026297811418771744,0.013708765618503094,0.9988014698028564,0,0,0,0,-0.05605899915099144,0.01079699955880642,0.9954589605331421,4.340000152587891,-0.7262499928474426,0.5950000286102295,-35.4900016784668,-5.194000244140625,-47.4739990234375,0.0,0.0,2866,0,0,0,0,9218,238663,-157,0.0,True
0.03400866687297821,0.14754167199134827,-0.019788658246397972,0.029122091829776764,0.1653471440076828,-0.02549535036087036,0.0039132460951805115,0.020398471504449844,-0.0004521012306213379,0.02508535236120224,0.05392715707421303,3.0552315711975098,0.04350901022553444,-0.026386870071291924,0.01368774939328432,0.9987911581993103,0,0,0,0,-0.05685199797153473,0.007929999381303787,0.9974719882011414,3.893749952316284,-1.0237499475479126,0.5600000023841858,-35.77000045776367,-5.053999900817871,-48.384002685546875,0.0,0.0,2879,0,0,0,0,9218,238765,-157,0.0,True
0.03396216779947281,0.14756329357624054,-0.01981361396610737,0.02880197949707508,0.16634239256381989,-0.02587217092514038,0.0030453987419605255,0.019103998318314552,-0.0035167336463928223,0.02532312646508217,0.05399230122566223,3.054556131362915,0.04384998232126236,-0.026409555226564407,0.013816769234836102,0.9987738132476807,0,0,0,0,-0.056120000779628754,0.01006499957293272,0.9954589605331421,3.9287500381469727,-0.8837500214576721,0.5249999761581421,-35.39200210571289,-4.703999996185303,-47.9640007019043,0.0,0.0,2890,0,0,0,0,9218,238867,-157,0.0,True
0.03394636884331703,0.14782235026359558,-0.019880039617419243,0.028728552162647247,0.16597914695739746,-0.02487601526081562,0.001202411949634552,0.01847836561501026,-0.0017635226249694824,0.024611379951238632,0.05414288491010666,3.0546257495880127,0.04380661994218826,-0.02650078944861889,0.013463783077895641,0.9987783432006836,0,0,0,0,-0.05709599703550339,0.008417999371886253,0.9942389726638794,4.033750057220459,-0.831250011920929,0.5337499976158142,-35.46200180053711,-4.77400016784668,-48.145999908447266,0.0,0.0,2885,0,0,0,0,9218,238969,-157,0.0,True
0.033929239958524704,0.1479509174823761,-0.019917039200663567,0.028538236394524574,0.16571499407291412,-0.024496302008628845,0.0027114488184452057,0.020035160705447197,-0.004583597183227539,0.02491103857755661,0.05426957085728645,3.0540082454681396,0.04411977529525757,-0.026553278788924217,0.013624315150082111,0.9987605214118958,0,0,0,0,-0.05520499870181084,0.0076249996200203896,0.9960689544677734,3.9287500381469727,-0.7437499761581421,0.5687500238418579,-35.070003509521484,-4.830000400543213,-48.7760009765625,0.0,0.0,2885,0,0,0,0,9218,239071,-157,0.0,True
0.03399316221475601,0.1485801637172699,-0.020022239536046982,0.028067773208022118,0.16731993854045868,-0.023569894954562187,0.0020634233951568604,0.01892881467938423,-0.0015396475791931152,0.02526545152068138,0.05416255071759224,3.053159475326538,0.044547855854034424,-0.026486163958907127,0.013810153119266033,0.9987411499023438,0,0,0,0,-0.05709599703550339,0.01140700001269579,0.9979599714279175,4.331250190734863,-0.8050000071525574,0.6825000047683716,-35.65800094604492,-5.236000061035156,-47.86600112915039,0.0,0.0,2881,0,0,0,0,9218,239173,-157,0.0,True
0.033924639225006104,0.1484692543745041,-0.020007554441690445,0.027973463758826256,0.1677585393190384,-0.02321944199502468,0.004473090171813965,0.02272471785545349,-0.004078984260559082,0.02457336336374283,0.05405747890472412,3.0530292987823486,0.04460320249199867,-0.026448247954249382,0.01346408948302269,0.9987443089485168,0,0,0,0,-0.05618099868297577,0.007991000078618526,0.9947269558906555,3.8062500953674316,-0.7350000143051147,0.6299999952316284,-35.560001373291016,-4.998000144958496,-48.13200378417969,0.0,0.0,2893,0,0,0,0,9218,239275,-157,0.0,True
0.033871524035930634,0.1485675424337387,-0.02001197263598442,0.027206161990761757,0.16695912182331085,-0.023522978648543358,0.00299980491399765,0.019793502986431122,-0.0035559535026550293,0.02480299584567547,0.05370002239942551,3.053226947784424,0.044505421072244644,-0.026266027241945267,0.013568272814154625,0.9987519979476929,0,0,0,0,-0.05581500008702278,0.010247999802231789,0.9966790080070496,3.8762500286102295,-0.918749988079071,0.4025000035762787,-35.952003479003906,-4.746000289916992,-47.7400016784668,0.0,0.0,2885,0,0,0,0,9218,239371,-157,0.0,True
0.03385821729898453,0.1486923098564148,-0.020041687414050102,0.02743564359843731,0.16769269108772278,-0.023255975916981697,0.004556518048048019,0.022520137950778008,-0.004206717014312744,0.02491168864071369,0.05378648266196251,3.0525095462799072,0.04486580193042755,-0.026301871985197067,0.013633864000439644,0.9987342357635498,0,0,0,0,-0.05624200031161308,0.010919000022113323,0.9967399835586548,4.191249847412109,-0.8575000166893005,0.49000000953674316,-35.4900016784668,-5.348000526428223,-47.90800094604492,0.0,0.0,2879,0,0,0,0,9218,239473,-157,0.0,True
0.03387824818491936,0.1491384506225586,-0.020084470510482788,0.027407625690102577,0.1690232902765274,-0.023389747366309166,0.003955408930778503,0.020874474197626114,-0.004130184650421143,0.02552472986280918,0.053861550986766815,3.051542043685913,0.04535750299692154,-0.026318859308958054,0.013954284600913525,0.9987068176269531,0,0,0,0,-0.06020699813961983,0.006771000102162361,0.995947003364563,3.8762500286102295,-0.8050000071525574,0.6825000047683716,-35.61600112915039,-5.180000305175781,-47.880001068115234,0.0,0.0,2875,0,0,0,0,9218,239574,-157,0.0,True
0.033912841230630875,0.14968641102313995,-0.020143158733844757,0.027457337826490402,0.17121276259422302,-0.023662079125642776,0.005307745188474655,0.02055145800113678,-0.003869950771331787,0.0249897763133049,0.053830020129680634,3.0511724948883057,0.045534998178482056,-0.026312708854675293,0.01369140762835741,0.9987028241157532,0,0,0,0,-0.05825499817728996,0.009638000279664993,0.9946050047874451,3.7362499237060547,-0.918749988079071,0.5512499809265137,-36.007999420166016,-4.703999996185303,-48.04800033569336,0.0,0.0,2874,0,0,0,0,9218,239676,-157,0.0,True
0.036838192492723465,0.16783566772937775,-0.022668382152915,0.030924109742045403,0.19148565828800201,-0.026569467037916183,0.0034012123942375183,0.022513901814818382,0.0001442432403564453,0.024661660194396973,0.054030321538448334,3.051226854324341,0.0455046221613884,-0.026420531794428825,0.01353139616549015,0.9987034797668457,0,0,0,0,-0.05697399750351906,0.007319999858736992,0.9987529516220093,3.841249942779541,-0.5249999761581421,0.45500001311302185,-36.134002685546875,-5.026000022888184,-48.07600021362305,0.0,0.0,2881,0,0,0,0,9218,239776,-157,0.0,True
0.036461424082517624,0.16591504216194153,-0.022423963993787766,0.030531145632267,0.1885751187801361,-0.026832757517695427,0.004683472216129303,0.018764538690447807,-0.0016388893127441406,0.024862533435225487,0.05418892204761505,3.05094313621521,0.045649804174900055,-0.02649320848286152,0.01363898254930973,0.9986931085586548,0,0,0,0,-0.057461999356746674,0.009027999825775623,0.9951539635658264,4.147500038146973,-0.9975000023841858,0.5600000023841858,-35.75600051879883,-5.473999977111816,-47.922000885009766,0.0,0.0,2884,0,0,0,0,9218,239878,-157,0.0,True
0.03972646966576576,0.18622365593910217,-0.025299733504652977,0.033558133989572525,0.20927974581718445,-0.02948048897087574,0.002924099564552307,0.021529795601963997,-0.003278493881225586,0.02465389482676983,0.05404232442378998,3.0507876873016357,0.045723963528871536,-0.02642371505498886,0.013533585704863071,0.9986938834190369,0,0,0,0,-0.05624200031161308,0.008174000307917595,0.9953370094299316,4.033750057220459,-0.7087500095367432,0.612500011920929,-35.75600051879883,-5.236000061035156,-47.9640007019043,0.0,0.0,2879,0,0,0,0,9218,239979,-157,0.0,True
0.03882433846592903,0.1811208426952362,-0.024585004895925522,0.031814128160476685,0.20222778618335724,-0.028185835108160973,0.0014895498752593994,0.022398732602596283,-0.002712726593017578,0.025168903172016144,0.05388770252466202,3.049804925918579,0.0462208017706871,-0.026327980682253838,0.013800123706459999,0.9986698031425476,0,0,0,0,-0.05526600033044815,0.01006499957293272,0.995947003364563,4.208750247955322,-0.831250011920929,0.6212499737739563,-35.7140007019043,-5.026000022888184,-48.439998626708984,0.0,0.0,2890,0,0,0,0,9218,240080,-157,0.0,True
0.04216645285487175,0.2024986892938614,-0.027582356706261635,0.034454863518476486,0.22313207387924194,-0.03158041834831238,0.0026423968374729156,0.02224319614470005,0.00014901161193847656,0.024943631142377853,0.05362790822982788,3.049370527267456,0.046434205025434494,-0.026200365275144577,0.01368738804012537,0.9986708760261536,0,0,0,0,-0.05740099772810936,0.008479000069200993,0.99686199426651,4.033750057220459,-0.8662499785423279,0.6387500166893005,-35.92399978637695,-5.418000221252441,-48.566001892089844,0.0,0.0,2878,0,0,0,0,9218,240181,-157,0.0,True
0.04109900817275047,0.19598695635795593,-0.026658710092306137,0.03295692056417465,0.21276229619979858,-0.02954917401075363,0.0032920464873313904,0.02016855962574482,-0.0013424158096313477,0.024655841290950775,0.053839102387428284,3.049083948135376,0.04657399654388428,-0.026310676708817482,0.013552404008805752,0.9986576437950134,0,0,0,0,-0.05636399984359741,0.009699000045657158,0.9972279667854309,3.7274999618530273,-0.8224999904632568,0.612500011920929,-36.189998626708984,-5.389999866485596,-48.327999114990234,0.0,0.0,2885,0,0,0,0,9218,240283,-157,0.0,True
0.04443467780947685,0.21752490103244781,-0.029637787491083145,0.03606230765581131,0.2326304316520691,-0.0321267768740654,0.0036310330033302307,0.02369384840130806,-0.002330780029296875,0.02420414797961712,0.05378972366452217,3.04917573928833,0.04652182012796402,-0.026297178119421005,0.013324610888957977,0.9986626505851746,0,0,0,0,-0.05642499774694443,0.009881999343633652,0.9979599714279175,4.007500171661377,-0.6825000047683716,0.6387500166893005,-36.27400207519531,-4.815999984741211,-48.496002197265625,0.0,0.0,2886,0,0,0,0,9218,240382,-157,0.0,True
0.04296307638287544,0.2081781029701233,-0.028365550562739372,0.03445323556661606,0.2202252447605133,-0.03104531578719616,0.004542995244264603,0.019048117101192474,-0.0038697123527526855,0.024625113233923912,0.053930770605802536,3.0486481189727783,0.0467919260263443,-0.026354175060987473,0.013544906862080097,0.998647153377533,0,0,0,0,-0.056120000779628754,0.009271999821066856,0.9927749633789062,3.981250047683716,-1.0412499904632568,0.6737499833106995,-36.176002502441406,-5.110000133514404,-47.880001068115234,0.0,0.0,2884,0,0,0,0,9218,240484,-157,0.0,True
0.04166203737258911,0.20019248127937317,-0.027220187708735466,0.032918818295001984,0.21002785861492157,-0.029411865398287773,0.0038087740540504456,0.020862922072410583,-0.00584864616394043,0.024656809866428375,0.05392492562532425,3.0484588146209717,0.046886637806892395,-0.026349278166890144,0.013563105836510658,0.9986410140991211,0,0,0,0,-0.0567299984395504,0.010919000022113323,0.9950929880142212,4.21750020980835,-0.875,0.5950000286102295,-35.70000076293945,-4.956000328063965,-47.90800094604492,0.0,0.0,2883,0,0,0,0,9218,240585,-157,0.0,True
0.040540531277656555,0.19329580664634705,-0.02627704106271267,0.032141316682100296,0.20257967710494995,-0.028134172782301903,0.004776861518621445,0.020129574462771416,-0.0011829137802124023,0.024655604735016823,0.05415291339159012,3.0483574867248535,0.04695994406938553,-0.02645811438560486,0.013567387126386166,0.9987900257110596,0,0,0,0,-0.05703499913215637,0.009393999353051186,0.9961299896240234,3.8324999809265137,-0.8487499952316284,0.5687500238418579,-36.37200164794922,-4.900000095367432,-47.7400016784668,0.0,0.0,2881,0,0,0,0,9218,240685,-157,0.0,True
0.03956783562898636,0.18764172494411469,-0.025489239022135735,0.030554020777344704,0.19651560485363007,-0.02731012925505638,0.003987662494182587,0.021256394684314728,-0.0016984939575195312,0.024472488090395927,0.053847502917051315,3.0481841564178467,0.04702098295092583,-0.026313098147511482,0.013472928665578365,0.9986369609832764,0,0,0,0,-0.05581500008702278,0.009455000050365925,0.9944829940795898,3.8324999809265137,-0.6474999785423279,0.699999988079071,-35.92399978637695,-4.914000034332275,-47.60000228881836,0.0,0.0,2883,0,0,0,0,9218,240786,-157,0.0,True
0.0388331413269043,0.18342283368110657,-0.024875827133655548,0.029590345919132233,0.19311700761318207,-0.026567688211798668,0.002614866942167282,0.021531669422984123,-0.0021535754203796387,0.0246296226978302,0.05370244011282921,3.047668933868408,0.0472797155380249,-0.026233479380607605,0.013554749079048634,0.9986265897750854,0,0,0,0,-0.05520499870181084,0.008112999610602856,0.9951539635658264,3.7537500858306885,-0.7350000143051147,0.6212499737739563,-36.134002685546875,-5.01200008392334,-47.64200210571289,0.0,0.0,2883,0,0,0,0,9218,240887,-157,0.0,True
0.038003772497177124,0.17863546311855316,-0.024234037846326828,0.02915877103805542,0.18781214952468872,-0.025714613497257233,0.004700496792793274,0.020616892725229263,-0.001093149185180664,0.02461998164653778,0.05386209860444069,3.047372579574585,0.04743005707859993,-0.02631107158958912,0.013557427562773228,0.9986290335655212,0,0,0,0,-0.05782799795269966,0.009455000050365925,0.9974109530448914,4.025000095367432,-0.6912500262260437,0.65625,-35.86800003051758,-5.053999900817871,-48.13200378417969,0.0,0.0,2885,0,0,0,0,9218,240995,-157,0.0,True
0.040965139865875244,0.19762349128723145,-0.026814933866262436,0.03241276741027832,0.20747800171375275,-0.028042973950505257,0.0023474209010601044,0.02134057506918907,-0.0007418990135192871,0.024249551817774773,0.05400573089718819,3.0472958087921143,0.04746260121464729,-0.026391373947262764,0.013377045281231403,0.9986153841018677,0,0,0,0,-0.05648599937558174,0.008356999605894089,0.99680095911026,4.269999980926514,-1.0674999952316284,0.6212499737739563,-35.75600051879883,-5.0960001945495605,-47.71200180053711,0.0,0.0,2877,0,0,0,0,9218,241090,-157,0.0,True
0.036399565637111664,0.1691557615995407,-0.022944185882806778,0.02761019393801689,0.17723675072193146,-0.023869682103395462,0.003435857594013214,0.018754560500383377,-0.002576887607574463,0.024204593151807785,0.05401160195469856,3.0474188327789307,0.04742766171693802,-0.026390857994556427,0.013351022265851498,0.9988104701042175,0,0,0,0,-0.05648599937558174,0.010735999792814255,0.995947003364563,4.130000114440918,-0.6825000047683716,0.6474999785423279,-36.04999923706055,-4.983999729156494,-48.2859992980957,0.0,0.0,2879,0,0,0,0,9218,241200,-157,0.0,True
0.03564779460430145,0.16462408006191254,-0.02238066866993904,0.026567168533802032,0.17288781702518463,-0.022787243127822876,0.001436188817024231,0.019279655069112778,-0.004365026950836182,0.023708071559667587,0.0537133626639843,3.0475592613220215,0.04732257500290871,-0.02625996060669422,0.013096455484628677,0.9986310005187988,0,0,0,0,-0.056120000779628754,0.010308999568223953,0.9969229698181152,4.147500038146973,-0.9537500143051147,0.5162500143051147,-35.90999984741211,-5.208000183105469,-47.86600112915039,0.0,0.0,2887,0,0,0,0,9218,241294,-157,0.0,True
0.03512231633067131,0.1618175208568573,-0.021976184099912643,0.026605814695358276,0.17105916142463684,-0.022835250943899155,0.003983307629823685,0.019582565873861313,-0.0036178231239318848,0.023495523259043694,0.05384151637554169,3.047616958618164,0.04729381203651428,-0.02632889337837696,0.012992430478334427,0.9986477494239807,0,0,0,0,-0.05697399750351906,0.009211000055074692,0.9949100017547607,4.182499885559082,-1.006250023841858,0.5249999761581421,-36.204002380371094,-5.264000415802002,-48.1879997253418,0.0,0.0,2883,0,0,0,0,9218,241399,-157,0.0,True
0.037792813032865524,0.17903006076812744,-0.02429238148033619,0.02936141937971115,0.18977060914039612,-0.025440583005547523,0.004476506263017654,0.01969723589718342,0.0009733438491821289,0.023760531097650528,0.05355405807495117,3.0475382804870605,0.047332800924777985,-0.026179086416959763,0.013119205832481384,0.9986315965652466,0,0,0,0,-0.05727899819612503,0.010431000031530857,0.9963129758834839,3.990000009536743,-0.918749988079071,0.6474999785423279,-35.99400329589844,-5.516000270843506,-48.439998626708984,0.0,0.0,2889,0,0,0,0,9218,241494,-157,0.0,True
0.03402058407664299,0.15553967654705048,-0.021148117259144783,0.025861795991659164,0.1656152307987213,-0.022136107087135315,0.0046688467264175415,0.020773831754922867,-0.0030012130737304688,0.023747215047478676,0.05377893149852753,3.0474579334259033,0.047386497259140015,-0.026288658380508423,0.013117915019392967,0.9987156391143799,0,0,0,0,-0.05770599842071533,0.008356999605894089,0.9955199956893921,3.9462499618530273,-0.8662499785423279,0.6299999952316284,-36.022003173828125,-4.788000106811523,-48.06200408935547,0.0,0.0,2890,0,0,0,0,9218,241596,-157,0.0,True
0.036997199058532715,0.17476950585842133,-0.023740218952298164,0.02912033721804619,0.18733921647071838,-0.02510313130915165,0.003518633544445038,0.01985732838511467,-0.0018851757049560547,0.02388245053589344,0.05369289219379425,3.0471627712249756,0.04754415526986122,-0.02623881585896015,0.013186587952077389,0.9987723231315613,0,0,0,0,-0.05642499774694443,0.009332999587059021,0.9966790080070496,3.884999990463257,-0.9712499976158142,0.5862500071525574,-35.88200378417969,-5.418000221252441,-47.7400016784668,0.0,0.0,2874,0,0,0,0,9218,241703,-157,0.0,True
0.03334856778383255,0.15195047855377197,-0.020696021616458893,0.025419093668460846,0.16369062662124634,-0.02171255648136139,0.0029684826731681824,0.02018926292657852,-0.002966463565826416,0.023562336340546608,0.053608059883117676,3.0471556186676025,0.047523561865091324,-0.026207860559225082,0.013026412576436996,0.9986367225646973,0,0,0,0,-0.05581500008702278,0.008600999601185322,0.9956420063972473,3.8062500953674316,-0.7875000238418579,0.8224999904632568,-36.0359992980957,-5.039999961853027,-47.95000076293945,0.0,0.0,2881,0,0,0,0,9218,241801,-157,0.0,True
0.032999295741319656,0.15003836154937744,-0.020427176728844643,0.025345856323838234,0.16368576884269714,-0.02185596339404583,0.0035065338015556335,0.02048904076218605,-0.0014207959175109863,0.02333824895322323,0.05355837196111679,3.0470571517944336,0.04757430776953697,-0.026186812669038773,0.012914332561194897,0.9986704587936401,0,0,0,0,-0.055570997297763824,0.008174000307917595,0.9922260046005249,4.173749923706055,-0.8662499785423279,0.699999988079071,-35.952003479003906,-4.928000450134277,-47.992000579833984,0.0,0.0,2882,0,0,0,0,9218,241900,-157,0.0,True
0.032652273774147034,0.1482924371957779,-0.02024724893271923,0.025211304426193237,0.16089126467704773,-0.02088819071650505,0.002943720668554306,0.018647044897079468,-0.0019050836563110352,0.02270025573670864,0.053459130227565765,3.047520160675049,0.04733248054981232,-0.02615569718182087,0.012587646022439003,0.9986746311187744,0,0,0,0,-0.05563199892640114,0.009271999821066856,0.9966790080070496,3.990000009536743,-0.7699999809265137,0.6474999785423279,-35.92399978637695,-4.605999946594238,-48.314002990722656,0.0,0.0,2873,0,0,0,0,9218,242002,-157,0.0,True
0.03251456469297409,0.14768968522548676,-0.02015857584774494,0.02513955719769001,0.160350039601326,-0.020620476454496384,0.003765922039747238,0.01773369312286377,-0.0021472573280334473,0.02282150462269783,0.05341934785246849,3.047515869140625,0.04733087494969368,-0.026133939623832703,0.012647661380469799,0.9986380934715271,0,0,0,0,-0.0563029982149601,0.010369999334216118,0.9963739514350891,3.9375,-0.9012500047683716,0.699999988079071,-35.77000045776367,-4.815999984741211,-48.15999984741211,0.0,0.0,2883,0,0,0,0,9218,242104,-157,0.0,True
0.03224710375070572,0.1463649868965149,-0.019982105121016502,0.025454971939325333,0.1591784656047821,-0.02046038955450058,0.0008382685482501984,0.01874382793903351,-0.0012211203575134277,0.02226695604622364,0.05356859415769577,3.048220157623291,0.04697412624955177,-0.026225609704852104,0.012365003116428852,0.9986670613288879,0,0,0,0,-0.055448997765779495,0.009088999591767788,0.9970449805259705,4.051249980926514,-0.8487499952316284,0.6037499904632568,-36.38600158691406,-4.886000156402588,-47.55800247192383,0.0,0.0,2880,0,0,0,0,9218,242206,-157,0.0,True
0.03221277892589569,0.14664965867996216,-0.02000979147851467,0.025741467252373695,0.15824036300182343,-0.02032306231558323,0.0017869733273983002,0.01813817396759987,-0.003164052963256836,0.022133497521281242,0.05374304577708244,3.0488340854644775,0.0466684028506279,-0.026319237425923347,0.012294221669435501,0.9986929297447205,0,0,0,0,-0.05471700057387352,0.009027999825775623,0.9954589605331421,3.911250114440918,-0.875,0.6650000214576721,-35.5880012512207,-4.7179999351501465,-47.992000579833984,0.0,0.0,2883,0,0,0,0,9218,242315,-157,0.0,True
0.03481084480881691,0.16264891624450684,-0.022083088755607605,0.028402825817465782,0.17647922039031982,-0.023033367469906807,0.001180347055196762,0.019555089995265007,-0.0027531981468200684,0.02191520482301712,0.05349438637495041,3.049093723297119,0.04653128609061241,-0.026202447712421417,0.01217636652290821,0.9986798763275146,0,0,0,0,-0.05508299916982651,0.009576999582350254,0.9935069680213928,4.235000133514404,-0.7962499856948853,0.6650000214576721,-35.47600173950195,-4.564000129699707,-47.68400192260742,0.0,0.0,2884,0,0,0,0,9218,242404,-157,0.0,True
0.034366052597761154,0.16039931774139404,-0.021764010190963745,0.027826933190226555,0.17085710167884827,-0.022525088861584663,0.005735673010349274,0.019971974194049835,-0.004890561103820801,0.02197369374334812,0.053679171949625015,3.0494656562805176,0.04635125398635864,-0.026294786483049393,0.012204625643789768,0.9987150430679321,0,0,0,0,-0.058681998401880264,0.007319999858736992,0.9935680031776428,4.15625,-0.6912500262260437,0.49000000953674316,-35.672000885009766,-4.480000019073486,-48.15999984741211,0.0,0.0,2879,0,0,0,0,9218,242511,-157,0.0,True
0.03370513394474983,0.15674744546413422,-0.0212848000228405,0.02722862921655178,0.16575656831264496,-0.0217466801404953,0.002478707581758499,0.020203670486807823,-0.002621769905090332,0.022253723815083504,0.0537528432905674,3.049464464187622,0.04635181277990341,-0.026325872167944908,0.012346392497420311,0.9986830949783325,0,0,0,0,-0.05569300055503845,0.007929999381303787,0.995885968208313,4.09499979019165,-0.7437499761581421,0.6737499833106995,-36.176002502441406,-4.872000217437744,-48.439998626708984,0.0,0.0,2884,0,0,0,0,9218,242606,-157,0.0,True
0.03338991850614548,0.15487316250801086,-0.021012742072343826,0.02650376595556736,0.1639074832201004,-0.021618513390421867,0.0016708634793758392,0.02083207294344902,-0.0034830570220947266,0.02237676829099655,0.053580593317747116,3.0493085384368896,0.0464358814060688,-0.02623498998582363,0.012405523099005222,0.9987203478813171,0,0,0,0,-0.054655998945236206,0.006527000106871128,0.9952149987220764,3.745000123977661,-0.8487499952316284,0.6387500166893005,-35.75600051879883,-4.872000217437744,-47.922000885009766,0.0,0.0,2880,0,0,0,0,9218,242709,-157,0.0,True
0.03615015372633934,0.17186979949474335,-0.023245617747306824,0.029568523168563843,0.18296632170677185,-0.02389954775571823,0.002612382173538208,0.020461460575461388,-0.00268709659576416,0.02310161292552948,0.05361861735582352,3.0489883422851562,0.04660008102655411,-0.02623620070517063,0.012772811576724052,0.99866783618927,0,0,0,0,-0.05691299960017204,0.00445299968123436,0.994970977306366,4.016250133514404,-1.0325000286102295,0.6299999952316284,-35.88200378417969,-5.1519999504089355,-47.51599884033203,0.0,0.0,2881,0,0,0,0,9218,242807,-157,0.0,True
0.035422440618276596,0.1675950586795807,-0.022666186094284058,0.028534825891256332,0.17814402282238007,-0.023741357028484344,0.00255778431892395,0.020728854462504387,-0.0052664875984191895,0.023187676444649696,0.05354584753513336,3.0486135482788086,0.04678802192211151,-0.0261954627931118,0.01281900517642498,0.9986597895622253,0,0,0,0,-0.0571569986641407,0.009088999591767788,0.9952149987220764,4.130000114440918,-0.7524999976158142,0.699999988079071,-35.854000091552734,-4.900000095367432,-47.544002532958984,0.0,0.0,2889,0,0,0,0,9218,242908,-157,0.0,True
0.03838619962334633,0.18632245063781738,-0.025132736191153526,0.03131383657455444,0.19832171499729156,-0.026191702112555504,0.003852691501379013,0.021403035148978233,-0.0010015368461608887,0.02330324798822403,0.05345367267727852,3.04826283454895,0.046964380890131,-0.026144474744796753,0.012879147194325924,0.9986526966094971,0,0,0,0,-0.05740099772810936,0.007197999861091375,0.9966179728507996,4.068749904632568,-1.225000023841858,0.6037499904632568,-35.895999908447266,-4.956000328063965,-47.880001068115234,0.0,0.0,2879,0,0,0,0,9218,243009,-157,0.0,True
0.03731686249375343,0.17972923815250397,-0.024240922182798386,0.029713377356529236,0.1895262897014618,-0.02515571378171444,0.0035772882401943207,0.020177550613880157,-0.001976609230041504,0.023125138133764267,0.053267400711774826,3.048182249069214,0.047003913670778275,-0.026054654270410538,0.012786787934601307,0.9986729621887207,0,0,0,0,-0.05618099868297577,0.008174000307917595,0.9966179728507996,3.7975001335144043,-0.9275000095367432,0.5950000286102295,-35.84000015258789,-4.619999885559082,-48.24400329589844,0.0,0.0,2887,0,0,0,0,9218,243110,-157,0.0,True
0.040469419211149216,0.19974589347839355,-0.02690151147544384,0.032963819801807404,0.20938189327716827,-0.027964023873209953,0.0007525011897087097,0.02099984884262085,-0.0028185248374938965,0.022899063304066658,0.053271181881427765,3.0484378337860107,0.0468706376850605,-0.026064002886414528,0.012670899741351604,0.9986609816551208,0,0,0,0,-0.055326998233795166,0.008356999605894089,0.9969840049743652,4.09499979019165,-0.7262499928474426,0.5687500238418579,-35.7140007019043,-4.983999729156494,-48.00600051879883,0.0,0.0,2885,0,0,0,0,9218,243211,-157,0.0,True
0.039080142974853516,0.19148603081703186,-0.025791525840759277,0.03157277777791023,0.19798627495765686,-0.026486855000257492,0.002258133143186569,0.018458615988492966,-0.004072368144989014,0.02233428694307804,0.05354883149266243,3.0489115715026855,0.046628303825855255,-0.02621869556605816,0.012389175593852997,0.998674213886261,0,0,0,0,-0.05496099963784218,0.00890599936246872,0.9945439696311951,3.981250047683716,-1.0325000286102295,0.6299999952316284,-35.72800064086914,-4.7179999351501465,-47.90800094604492,0.0,0.0,2881,0,0,0,0,9218,243312,-157,0.0,True
0.04240128770470619,0.21240773797035217,-0.028608286753296852,0.034651126712560654,0.2177555412054062,-0.029434479773044586,0.0037058480083942413,0.02002740651369095,-0.0037247538566589355,0.02240845561027527,0.05353750288486481,3.0488481521606445,0.046660520136356354,-0.026210984215140343,0.012426790781319141,0.9986700415611267,0,0,0,0,-0.05648599937558174,0.009088999591767788,0.9956420063972473,3.745000123977661,-0.8662499785423279,0.6387500166893005,-35.70000076293945,-4.77400016784668,-47.810001373291016,0.0,0.0,2885,0,0,0,0,9218,243413,-157,0.0,True
0.04073639214038849,0.20201149582862854,-0.027248064056038857,0.03188515454530716,0.20357836782932281,-0.02726118266582489,0.0010570809245109558,0.019999999552965164,-0.005420088768005371,0.021158356219530106,0.053085822612047195,3.0496420860290527,0.04624619334936142,-0.026019202545285225,0.011782011017203331,0.9987074732780457,0,0,0,0,-0.05349699780344963,0.00597799988463521,0.9933239817619324,3.9549999237060547,-0.7175000309944153,0.5162500143051147,-35.75600051879883,-4.060000419616699,-47.82400131225586,0.0,0.0,2885,0,0,0,0,9218,243515,-157,0.0,True
0.04397168755531311,0.2224646359682083,-0.030006948858499527,0.0352102667093277,0.2212407886981964,-0.030105000361800194,0.00418352335691452,0.018144041299819946,-0.003742516040802002,0.02167033962905407,0.05315994843840599,3.0497937202453613,0.04617675393819809,-0.026045428588986397,0.01203734427690506,0.9987016320228577,0,0,0,0,-0.057339999824762344,0.00634399987757206,0.9938119649887085,4.033750057220459,-1.1462500095367432,0.612500011920929,-35.97999954223633,-4.872000217437744,-47.95000076293945,0.0,0.0,2886,0,0,0,0,9218,243615,-157,0.0,True
0.042043667286634445,0.21087408065795898,-0.028393078595399857,0.033494509756565094,0.20794403553009033,-0.028664877638220787,0.0026516616344451904,0.02016937918961048,-0.003602921962738037,0.021759258583188057,0.0535258986055851,3.0494678020477295,0.04634251073002815,-0.026224074885249138,0.012094344943761826,0.9986887574195862,0,0,0,0,-0.057339999824762344,0.007197999861091375,0.9966790080070496,3.9375,-0.831250011920929,0.7612500190734863,-35.32200241088867,-5.124000072479248,-48.13200378417969,0.0,0.0,2885,0,0,0,0,9218,243716,-157,0.0,True
0.045514900237321854,0.23270311951637268,-0.03136850893497467,0.035756319761276245,0.22719044983386993,-0.030977720394730568,0.003805052489042282,0.018142931163311005,-0.0016936063766479492,0.021716175600886345,0.0530095100402832,3.0496408939361572,0.04625294730067253,-0.02596835047006607,0.01205877959728241,0.998699963092804,0,0,0,0,-0.054899998009204865,0.010308999568223953,0.9931409955024719,4.112500190734863,-0.6387500166893005,0.6037499904632568,-36.316001892089844,-4.886000156402588,-48.66400146484375,0.0,0.0,2883,0,0,0,0,9218,243817,-157,0.0,True
0.04332070052623749,0.21934455633163452,-0.029492484405636787,0.03339073434472084,0.21105387806892395,-0.02907697483897209,0.002451196312904358,0.02205655723810196,-0.0015862584114074707,0.022830059751868248,0.053360726684331894,3.049445629119873,0.04636722058057785,-0.02611657977104187,0.012625322677195072,0.9986875057220459,0,0,0,0,-0.05538799986243248,0.0058559998869895935,0.9971059560775757,3.3862500190734863,-0.9624999761581421,0.4637500047683716,-36.176002502441406,-5.039999961853027,-47.8380012512207,0.0,0.0,2880,0,0,0,0,9218,243918,-157,0.0,True
0.04714789241552353,0.2433360069990158,-0.03280862793326378,0.03740687668323517,0.23222772777080536,-0.03184588626027107,0.005079340189695358,0.01941795088350773,-0.001274704933166504,0.020428989082574844,0.0532754510641098,3.0492188930511475,0.04647146165370941,-0.026123858988285065,0.011426321230828762,0.9988619685173035,0,0,0,0,-0.057888999581336975,0.00634399987757206,0.9972279667854309,1.3825000524520874,-1.3212499618530273,0.11375000327825546,-36.022003173828125,-4.605999946594238,-47.82400131225586,0.0,0.0,2879,0,0,0,0,9218,244027,-157,0.0,True
0.044278040528297424,0.2256694883108139,-0.03040185570716858,0.03395459055900574,0.21279042959213257,-0.029229097068309784,0.0019340477883815765,0.01973031833767891,-0.0038090944290161133,0.017797285690903664,0.0525207482278347,3.048402786254883,0.04682213440537453,-0.02580798789858818,0.010107189416885376,0.9987241625785828,0,0,0,0,-0.05483900010585785,0.004147999919950962,0.9949100017547607,3.228749990463257,-1.0237499475479126,0.45500001311302185,-36.302001953125,-5.026000022888184,-48.04800033569336,0.0,0.0,2881,0,0,0,0,9218,244119,-157,0.0,True
0.047825828194618225,0.248138889670372,-0.033515237271785736,0.036443132907152176,0.23323871195316315,-0.03255097195506096,0.0009527243673801422,0.020427891984581947,-0.0023325085639953613,0.018214786425232887,0.05278996005654335,3.0482444763183594,0.04691094905138016,-0.02593114972114563,0.010323692113161087,0.998738169670105,0,0,0,0,-0.05459499731659889,0.0030499999411404133,0.9939339756965637,4.445000171661377,-0.5425000190734863,0.5774999856948853,-36.302001953125,-4.815999984741211,-48.314002990722656,0.0,0.0,2888,0,0,0,0,9218,244221,-157,0.0,True
0.045260801911354065,0.2323586791753769,-0.031296245753765106,0.03367031738162041,0.21760906279087067,-0.031542591750621796,0.005772896111011505,0.02554285153746605,-0.0045204758644104,0.02166798710823059,0.053692564368247986,3.0477588176727295,0.04720502346754074,-0.026297258213162422,0.012074447236955166,0.9987128973007202,0,0,0,0,-0.05929199978709221,0.001585999969393015,0.994055986404419,5.573750019073486,-0.2800000011920929,1.0499999523162842,-36.189998626708984,-5.039999961853027,-47.86600112915039,0.0,0.0,2881,0,0,0,0,9218,244322,-157,0.0,True
0.04313960298895836,0.21912294626235962,-0.029370592907071114,0.03156207129359245,0.20583629608154297,-0.02986391820013523,-0.0008999258279800415,0.022028064355254173,-0.00487828254699707,0.025645039975643158,0.05445804446935654,3.048607349395752,0.04683149233460426,-0.026592658832669258,0.014066452160477638,0.9986519813537598,0,0,0,0,-0.05270399898290634,0.008417999371886253,0.9939339756965637,6.737500190734863,-0.21000000834465027,1.277500033378601,-36.10600280761719,-5.473999977111816,-47.992000579833984,0.0,0.0,2881,0,0,0,0,9218,244424,-157,0.0,True
0.04167568311095238,0.21015450358390808,-0.028118876740336418,0.031003644689917564,0.19984595477581024,-0.028952455148100853,0.003202088177204132,0.020496346056461334,-0.004729151725769043,0.029261616989970207,0.05525023117661476,3.0497961044311523,0.0463089756667614,-0.026909058913588524,0.01587202027440071,0.9987732172012329,0,0,0,0,-0.05709599703550339,0.013907999731600285,0.9937509894371033,5.25,-0.4637500047683716,1.190000057220459,-36.288002014160156,-4.5360002517700195,-47.82400131225586,0.0,0.0,2882,0,0,0,0,9218,244537,-157,0.0,True
0.039844900369644165,0.19883906841278076,-0.026454048231244087,0.029989857226610184,0.1911562979221344,-0.027938997372984886,0.002232693135738373,0.018691575154662132,-0.002265334129333496,0.030609888955950737,0.055318981409072876,3.0503783226013184,0.04602079093456268,-0.026920314878225327,0.016540247946977615,0.9986580610275269,0,0,0,0,-0.05605899915099144,0.01701899990439415,0.9961909651756287,4.191249847412109,-0.9362500309944153,0.699999988079071,-35.86800003051758,-5.2220001220703125,-47.85200119018555,0.0,0.0,2881,0,0,0,0,9218,244628,-157,0.0,True
0.03833618760108948,0.18970419466495514,-0.02513859234750271,0.029492948204278946,0.18510954082012177,-0.027194645255804062,0.0033931806683540344,0.020807139575481415,-0.006272614002227783,0.029166806489229202,0.05495370551943779,3.050349712371826,0.04600822553038597,-0.026771996170282364,0.01581261307001114,0.998637318611145,0,0,0,0,-0.05941399931907654,0.012748999521136284,0.9947879910469055,2.799999952316284,-0.918749988079071,0.5687500238418579,-36.428001403808594,-4.983999729156494,-47.362003326416016,0.0,0.0,2882,0,0,0,0,9218,244727,-157,0.0,True
0.037327948957681656,0.1835826188325882,-0.02426423877477646,0.028673861175775528,0.181402325630188,-0.026653891429305077,0.002941455692052841,0.019688686355948448,-0.005666494369506836,0.022540602833032608,0.05327665060758591,3.0491247177124023,0.04652290418744087,-0.026079414412379265,0.012483139522373676,0.9986793398857117,0,0,0,0,-0.05313099920749664,0.006709999870508909,0.9948489665985107,-0.5337499976158142,-1.6887500286102295,-0.008750000037252903,-35.79800033569336,-5.053999900817871,-47.922000885009766,0.0,0.0,2879,0,0,0,0,9218,244830,-157,0.0,True
0.036450449377298355,0.17838157713413239,-0.023455839604139328,0.027362314984202385,0.1779804229736328,-0.024231160059571266,0.01016204059123993,0.011477531865239143,-0.009573519229888916,0.017223278060555458,0.05174817889928818,3.0480477809906006,0.04698581248521805,-0.02543468214571476,0.009807465597987175,0.9987044930458069,0,0,0,0,-0.06502600014209747,0.012199999764561653,0.9942389726638794,5.573750019073486,-0.5862500071525574,0.5162500143051147,-36.14799880981445,-4.578000068664551,-47.53000259399414,0.0,0.0,2890,0,0,0,0,9218,244932,-157,0.0,True
0.035698302090168,0.17373274266719818,-0.022804221138358116,0.027563324198126793,0.1771070808172226,-0.02583928406238556,0.005821961909532547,0.015526958741247654,-0.00844717025756836,0.014617997221648693,0.05203333497047424,3.0480127334594727,0.0469709113240242,-0.025638053193688393,0.008514064364135265,0.9987114071846008,0,0,0,0,-0.057218000292778015,0.0043310001492500305,0.9900299906730652,1.3912500143051147,-1.4524999856948853,0.33250001072883606,-36.007999420166016,-4.676000118255615,-48.29999923706055,0.0,0.0,2883,0,0,0,0,9218,245034,-157,0.0,True
0.03494120389223099,0.16897998750209808,-0.022227345034480095,0.025730881839990616,0.17430473864078522,-0.024465320631861687,0.002978455275297165,0.01514945924282074,-0.010394871234893799,0.011746365576982498,0.0513014979660511,3.0476834774017334,0.0470968596637249,-0.025338949635624886,0.007067723665386438,0.9987245202064514,0,0,0,0,-0.05575399845838547,-0.002561999950557947,0.9849059581756592,3.9462499618530273,-0.7175000309944153,0.699999988079071,-35.742000579833984,-4.185999870300293,-47.67000198364258,0.0,0.0,2886,0,0,0,0,9218,245135,-157,0.0,True
0.03441935032606125,0.16569620370864868,-0.021760862320661545,0.025470491498708725,0.1724146008491516,-0.023841658607125282,0.000734180212020874,0.017840877175331116,-0.0023990869522094727,0.012225749902427197,0.05170796811580658,3.0479393005371094,0.046976130455732346,-0.025531498715281487,0.007313259411603212,0.9987238645553589,0,0,0,0,-0.0520939975976944,-0.0014029999729245901,0.9946659803390503,4.733749866485596,-0.7087500095367432,0.8487499952316284,-35.86800003051758,-4.550000190734863,-48.11800003051758,0.0,0.0,2881,0,0,0,0,9218,245238,-157,0.0,True
0.03388465195894241,0.16225561499595642,-0.02131611295044422,0.023919587954878807,0.17000974714756012,-0.02332557924091816,0.002305496484041214,0.019321970641613007,-0.0010395050048828125,0.016386862844228745,0.05234195291996002,3.0484073162078857,0.04679754748940468,-0.025752421468496323,0.00939913559705019,0.9987088441848755,0,0,0,0,-0.055570997297763824,0.0003659999929368496,0.9953370094299316,5.066249847412109,-0.5249999761581421,0.6212499737739563,-36.10600280761719,-4.381999969482422,-47.305999755859375,0.0,0.0,2877,0,0,0,0,9218,245339,-157,0.0,True
0.033496685326099396,0.16003762185573578,-0.021015794947743416,0.023638395592570305,0.1691408008337021,-0.023303819820284843,0.001737155020236969,0.021100619807839394,-0.005990147590637207,0.015447624959051609,0.05216946080327034,3.0482847690582275,0.04684620350599289,-0.025687724351882935,0.008927864022552967,0.9987128973007202,0,0,0,0,-0.05441199988126755,0.001158999977633357,0.9947879910469055,3.841249942779541,-1.006250023841858,0.4375,-35.92399978637695,-4.886000156402588,-47.656002044677734,0.0,0.0,2883,0,0,0,0,9218,245442,-157,0.0,True
0.033046647906303406,0.1572236716747284,-0.02058752439916134,0.02258126065135002,0.16783642768859863,-0.02410651184618473,0.00357799232006073,0.021374110132455826,-0.0019385814666748047,0.014221846126019955,0.05182301625609398,3.048499822616577,0.046721961349248886,-0.025544386357069016,0.008305194787681103,0.9987273216247559,0,0,0,0,-0.055021997541189194,-0.0007929999846965075,0.9944219589233398,4.051249980926514,-0.9712499976158142,0.5249999761581421,-35.46200180053711,-4.564000129699707,-47.57200241088867,0.0,0.0,2889,0,0,0,0,9218,245538,-157,0.0,True
0.032758086919784546,0.15564854443073273,-0.02035410888493061,0.022745996713638306,0.16684378683567047,-0.024525951594114304,0.0026097185909748077,0.01983892358839512,-0.0023685097694396973,0.013384971767663956,0.05220678448677063,3.0489463806152344,0.046489302068948746,-0.02575725130736828,0.007890577428042889,0.998736560344696,0,0,0,0,-0.055021997541189194,-0.0014029999729245901,0.9963129758834839,3.569999933242798,-0.8837500214576721,0.6912500262260437,-36.04999923706055,-4.5360002517700195,-48.145999908447266,0.0,0.0,2880,0,0,0,0,9218,245639,-157,0.0,True
0.03237904608249664,0.15338800847530365,-0.02003464661538601,0.02256128378212452,0.1652079075574875,-0.024448879063129425,0.0019613951444625854,0.0202990360558033,-0.003441929817199707,0.01376235019415617,0.05234915018081665,3.048433542251587,0.046750593930482864,-0.02581748738884926,0.00808886531740427,0.9987208247184753,0,0,0,0,-0.05386300012469292,-0.001585999969393015,0.9967399835586548,3.456249952316284,-0.9975000023841858,0.5512499809265137,-35.60200119018555,-4.633999824523926,-48.608001708984375,0.0,0.0,2892,0,0,0,0,9218,245739,-157,0.0,True
0.032168302685022354,0.15229442715644836,-0.019880464300513268,0.02152853086590767,0.16593390703201294,-0.025038667023181915,0.0005822144448757172,0.018501540645956993,-0.006444871425628662,0.012924221344292164,0.0518227182328701,3.0483558177948,0.04677721858024597,-0.025573985651135445,0.007659273222088814,0.9987290501594543,0,0,0,0,-0.05404599756002426,-0.0016469999682158232,0.994055986404419,4.103750228881836,-0.9012500047683716,0.5600000023841858,-35.5880012512207,-4.550000190734863,-48.314002990722656,0.0,0.0,2882,0,0,0,0,9218,245841,-157,0.0,True
0.03188714012503624,0.15062202513217926,-0.019633907824754715,0.02122737094759941,0.16496452689170837,-0.025299658998847008,0.0026256516575813293,0.02044314332306385,-0.005629003047943115,0.012294070795178413,0.05176718160510063,3.048753023147583,0.04657052457332611,-0.02556246519088745,0.007338345516473055,0.9987409710884094,0,0,0,0,-0.05447299778461456,-0.0028059999458491802,0.9978379607200623,3.884999990463257,-0.7875000238418579,0.45500001311302185,-35.854000091552734,-4.438000202178955,-47.51599884033203,0.0,0.0,2881,0,0,0,0,9218,245941,-157,0.0,True
0.03169139474630356,0.14979860186576843,-0.0195357296615839,0.020668555051088333,0.16478954255580902,-0.026029642671346664,0.0010523945093154907,0.019189313054084778,-0.004240632057189941,0.012297789566218853,0.0515473410487175,3.0489730834960938,0.046460267156362534,-0.02545342780649662,0.0073323179967701435,0.9987494349479675,0,0,0,0,-0.053008999675512314,-0.000914999982342124,0.9932019710540771,3.7537500858306885,-0.918749988079071,0.5600000023841858,-35.90999984741211,-4.395999908447266,-47.698001861572266,0.0,0.0,2885,0,0,0,0,9218,246043,-157,0.0,True
0.031376443803310394,0.14798735082149506,-0.01928560435771942,0.02025081403553486,0.16289345920085907,-0.025478778406977654,0.0021512992680072784,0.019614120945334435,-0.003649115562438965,0.012226330116391182,0.051354341208934784,3.0494749546051025,0.04620829597115517,-0.025360537692904472,0.007285820785909891,0.9987651705741882,0,0,0,0,-0.05563199892640114,-0.00317199993878603,0.9960079789161682,3.7537500858306885,-0.8837500214576721,0.6387500166893005,-35.70000076293945,-4.633999824523926,-47.194000244140625,0.0,0.0,2883,0,0,0,0,9218,246143,-157,0.0,True
0.03352804109454155,0.16539449989795685,-0.022027991712093353,0.02227749116718769,0.18230628967285156,-0.028786515817046165,0.0021346695721149445,0.01891348883509636,-0.004148602485656738,0.013127682730555534,0.05111317336559296,3.0489723682403564,0.04647021368145943,-0.02521737664937973,0.007736586034297943,0.9987533092498779,0,0,0,0,-0.052887000143527985,-0.0007929999846965075,0.9922260046005249,3.9024999141693115,-1.0762499570846558,0.5950000286102295,-36.582000732421875,-4.424000263214111,-47.992000579833984,0.0,0.0,2880,0,0,0,0,9218,246244,-157,0.0,True
0.0331200547516346,0.16299523413181305,-0.021680478006601334,0.022204894572496414,0.18002276122570038,-0.0290311761200428,0.0017143338918685913,0.018612071871757507,-0.0040291547775268555,0.012188312597572803,0.051286205649375916,3.049327850341797,0.046280939131975174,-0.02532689832150936,0.007267148233950138,0.9987615942955017,0,0,0,0,-0.054228998720645905,-0.002988999942317605,0.9972890019416809,3.9375,-0.612500011920929,0.5774999856948853,-36.16200256347656,-4.326000213623047,-47.79600143432617,0.0,0.0,2873,0,0,0,0,9218,246345,-157,0.0,True
0.03548695892095566,0.1821705847978592,-0.024783870205283165,0.024705272167921066,0.19960126280784607,-0.032420992851257324,0.0015154331922531128,0.019515331834554672,-0.004657089710235596,0.012324424460530281,0.05138435214757919,3.0494916439056396,0.04620113968849182,-0.025373348966240883,0.007335274945944548,0.998763382434845,0,0,0,0,-0.05496099963784218,-0.0029279999434947968,0.9932019710540771,3.622499942779541,-0.7875000238418579,0.5425000190734863,-36.302001953125,-4.354000091552734,-47.53000259399414,0.0,0.0,2877,0,0,0,0,9218,246446,-157,0.0,True
0.0346858911216259,0.17631782591342926,-0.023878471925854683,0.02347598411142826,0.19269683957099915,-0.03065633401274681,0.0033360831439495087,0.02081991545855999,-0.004459679126739502,0.013224403373897076,0.05147615447640419,3.0486769676208496,0.04661990702152252,-0.02539517916738987,0.007796988356858492,0.9987413883209229,0,0,0,0,-0.05172799900174141,-0.0040870001539587975,0.9944829940795898,3.788749933242798,-0.7175000309944153,0.5512499809265137,-35.92399978637695,-4.410000324249268,-47.432003021240234,0.0,0.0,2886,0,0,0,0,9218,246547,-157,0.0,True
0.03407401964068413,0.17201928794384003,-0.02322664111852646,0.022795436903834343,0.18673622608184814,-0.029692362993955612,0.001957118511199951,0.01816515251994133,-0.0016713738441467285,0.012549914419651031,0.05167550966143608,3.0490901470184326,0.046405237168073654,-0.02551198936998844,0.007459636777639389,0.9987496137619019,0,0,0,0,-0.05245999991893768,-0.0040259999223053455,0.9949100017547607,4.147500038146973,-0.9012500047683716,0.3762499988079071,-36.2599983215332,-4.605999946594238,-47.82400131225586,0.0,0.0,2885,0,0,0,0,9218,246647,-157,0.0,True
0.03354792669415474,0.1682298332452774,-0.022669345140457153,0.021875465288758278,0.18253719806671143,-0.028579222038388252,0.001928776502609253,0.018535997718572617,-0.0018066763877868652,0.013027678243815899,0.05159708857536316,3.0485570430755615,0.046677544713020325,-0.025459684431552887,0.007703111506998539,0.9987372756004333,0,0,0,0,-0.053679998964071274,-0.0005489999894052744,0.9969229698181152,3.543750047683716,-0.9624999761581421,0.5512499809265137,-35.784000396728516,-4.5360002517700195,-47.0260009765625,0.0,0.0,2884,0,0,0,0,9218,246748,-157,0.0,True
0.03304435312747955,0.16469763219356537,-0.022148532792925835,0.021624062210321426,0.18067969381809235,-0.028236597776412964,0.0026628077030181885,0.02241419069468975,-0.004314780235290527,0.013339507393538952,0.05183357745409012,3.047947406768799,0.047009218484163284,-0.02556382678449154,0.007871165871620178,0.9988788366317749,0,0,0,0,-0.054228998720645905,-0.0033549999352544546,0.9942389726638794,4.007500171661377,-0.9800000190734863,0.7437499761581421,-36.59600067138672,-4.340000152587891,-47.194000244140625,0.0,0.0,2879,0,0,0,0,9218,246848,-157,0.0,True
0.03258533775806427,0.16163554787635803,-0.02169233374297619,0.02085130847990513,0.1783861517906189,-0.02769034169614315,0.00026774778962135315,0.02071128599345684,-0.003262937068939209,0.013479305431246758,0.05169385299086571,3.047437906265259,0.047242455184459686,-0.025493036955595016,0.007945077493786812,0.9987068772315979,0,0,0,0,-0.0500199981033802,-0.001829999964684248,0.9965569972991943,3.788749933242798,-0.7787500023841858,0.7262499928474426,-36.10600280761719,-4.550000190734863,-47.95000076293945,0.0,0.0,2886,0,0,0,0,9218,246949,-157,0.0,True
0.03225206583738327,0.1595756560564041,-0.021403871476650238,0.020314686000347137,0.17813821136951447,-0.02799985371530056,0.0014106743037700653,0.02035416103899479,-0.005340874195098877,0.013170856051146984,0.05158015340566635,3.047189712524414,0.047362491488456726,-0.025442548096179962,0.007791591342538595,0.9987055063247681,0,0,0,0,-0.054106999188661575,-0.002317999955266714,0.9957029819488525,4.016250133514404,-0.831250011920929,0.5687500238418579,-36.288002014160156,-4.550000190734863,-47.375999450683594,0.0,0.0,2890,0,0,0,0,9218,247051,-157,0.0,True
0.031962309032678604,0.15755043923854828,-0.021121159195899963,0.019291605800390244,0.17659297585487366,-0.027743060141801834,0.0025122351944446564,0.019909527152776718,-0.005113124847412109,0.01324173528701067,0.05124993249773979,3.0468132495880127,0.04755033552646637,-0.025274597108364105,0.00782397948205471,0.9986990094184875,0,0,0,0,-0.05386300012469292,-0.0016469999682158232,0.993628978729248,3.8762500286102295,-0.9100000262260437,0.7262499928474426,-35.97999954223633,-4.452000141143799,-47.9640007019043,0.0,0.0,2887,0,0,0,0,9218,247152,-157,0.0,True
0.0317230299115181,0.15609055757522583,-0.02090323530137539,0.019020184874534607,0.1761147528886795,-0.02802158333361149,0.002558492124080658,0.01993660256266594,-0.005908370018005371,0.012862120755016804,0.051143113523721695,3.046895980834961,0.047503769397735596,-0.025230638682842255,0.0076309265568852425,0.998702883720398,0,0,0,0,-0.0538019984960556,-0.002073999959975481,0.9928359985351562,3.884999990463257,-0.8662499785423279,0.612500011920929,-35.92399978637695,-4.312000274658203,-47.86600112915039,0.0,0.0,2875,0,0,0,0,9218,247254,-157,0.0,True
0.03161199018359184,0.15599112212657928,-0.020908573642373085,0.018674710765480995,0.17721031606197357,-0.028399022296071053,0.0018805786967277527,0.019694361835718155,-0.003867506980895996,0.013127368874847889,0.05111297592520714,3.0465149879455566,0.047727931290864944,-0.02520224265754223,0.007766271475702524,0.9989069104194641,0,0,0,0,-0.05313099920749664,-0.001585999969393015,0.9949100017547607,4.138750076293945,-0.6474999785423279,0.4637500047683716,-36.189998626708984,-4.410000324249268,-47.880001068115234,0.0,0.0,2868,0,0,0,0,9218,247365,-157,0.0,True
0.03118075802922249,0.1526537835597992,-0.020401889458298683,0.019002113491296768,0.17397193610668182,-0.027477024123072624,0.0037283673882484436,0.021410061046481133,-0.0024243593215942383,0.013044657185673714,0.051581013947725296,3.0462443828582764,0.0478392019867897,-0.02544119581580162,0.007740423548966646,0.9987257122993469,0,0,0,0,-0.05441199988126755,-0.0023789999540895224,0.9938730001449585,3.884999990463257,-0.8662499785423279,0.5162500143051147,-35.965999603271484,-4.7179999351501465,-48.17400360107422,0.0,0.0,2880,0,0,0,0,9218,247455,-157,0.0,True
0.030960407108068466,0.1514476090669632,-0.020303964614868164,0.019219061359763145,0.17405113577842712,-0.026990292593836784,0.0032465681433677673,0.018692467361688614,-0.002514362335205078,0.012241406366229057,0.05188733711838722,3.0462026596069336,0.04785285145044327,-0.02561272494494915,0.0073472196236252785,0.9987396597862244,0,0,0,0,-0.05550999939441681,-6.0999998822808266e-05,0.9974719882011414,4.348750114440918,-0.8837500214576721,0.7699999809265137,-36.022003173828125,-4.690000057220459,-48.566001892089844,0.0,0.0,2875,0,0,0,0,9218,247556,-157,0.0,True
0.03078082762658596,0.15067632496356964,-0.020192258059978485,0.01873331144452095,0.17363180220127106,-0.02661072462797165,0.0023942552506923676,0.022135142236948013,-0.0016322731971740723,0.011865129694342613,0.05164983496069908,3.046490430831909,0.04769919812679291,-0.025505023077130318,0.007150239311158657,0.9987199306488037,0,0,0,0,-0.054655998945236206,-0.005123999901115894,0.9971059560775757,4.278749942779541,-0.7875000238418579,0.5512499809265137,-36.189998626708984,-4.8580002784729,-49.01400375366211,0.0,0.0,2870,0,0,0,0,9218,247657,-157,0.0,True
0.030500253662467003,0.14876137673854828,-0.01991627737879753,0.01865897700190544,0.1721385270357132,-0.02656359039247036,0.007190100848674774,0.017829371616244316,-0.0008986592292785645,0.01197079848498106,0.05177883431315422,3.046337366104126,0.04777329042553902,-0.025567101314663887,0.007208137307316065,0.9986854791641235,0,0,0,0,-0.057583998888731,-0.003476999932900071,1.0073540210723877,3.8499999046325684,-0.7524999976158142,0.44624999165534973,-36.21800231933594,-4.480000019073486,-48.24400329589844,0.0,0.0,2881,0,0,0,0,9218,247759,-157,0.0,True
0.030361996963620186,0.14811763167381287,-0.019849857315421104,0.018470268696546555,0.1715654730796814,-0.027077442035079002,0.0067826732993125916,0.017372535541653633,-0.004466831684112549,0.012417646124958992,0.051655203104019165,3.046234369277954,0.047830045223236084,-0.025494342669844627,0.007429568096995354,0.9986826777458191,0,0,0,0,-0.05520499870181084,-0.004391999915242195,0.9977160096168518,4.033750057220459,-0.9012500047683716,0.5862500071525574,-36.134002685546875,-4.522000312805176,-47.89400100708008,0.0,0.0,2879,0,0,0,0,9218,247861,-157,0.0,True
0.03027312271296978,0.14806173741817474,-0.0198680367320776,0.018418878316879272,0.17128457129001617,-0.027857480570673943,0.0011407211422920227,0.021303143352270126,-0.004756808280944824,0.012679331935942173,0.05149562284350395,3.046220064163208,0.0478401742875576,-0.025408370420336723,0.007556583732366562,0.9986836910247803,0,0,0,0,-0.052765000611543655,-0.002317999955266714,0.9955199956893921,3.762500047683716,-0.9449999928474426,0.7175000309944153,-35.79800033569336,-4.619999885559082,-47.78200149536133,0.0,0.0,2876,0,0,0,0,9218,247960,-157,0.0,True
0.03012743592262268,0.1474703550338745,-0.019790787249803543,0.018216775730252266,0.17089082300662994,-0.027413172647356987,0.0011593662202358246,0.019300026819109917,-0.00039881467819213867,0.01264303270727396,0.05138644203543663,3.0464534759521484,0.047722768038511276,-0.0253556277602911,0.00753291230648756,0.9986904859542847,0,0,0,0,-0.05453399941325188,-0.0001829999964684248,0.9980819821357727,3.858750104904175,-0.9887499809265137,0.7087500095367432,-36.064002990722656,-4.130000114440918,-47.68400192260742,0.0,0.0,2881,0,0,0,0,9218,248062,-157,0.0,True
0.030077200382947922,0.14765878021717072,-0.019866950809955597,0.019069908186793327,0.17192839086055756,-0.027711378410458565,0.0016254298388957977,0.017368681728839874,-0.00306779146194458,0.012783698737621307,0.05199114978313446,3.048387289047241,0.04676017165184021,-0.025661470368504524,0.007592633832246065,0.9987280964851379,0,0,0,0,-0.053557999432086945,-0.0026229999493807554,0.9960079789161682,3.5787501335144043,-0.9887499809265137,1.190000057220459,-35.97999954223633,-4.326000213623047,-47.89400100708008,0.0,0.0,2874,0,0,0,0,9218,248164,-157,0.0,True
0.02995198220014572,0.14720460772514343,-0.01981601119041443,0.0194100234657526,0.17082345485687256,-0.027192847803235054,-0.0011277906596660614,0.02002546191215515,-0.0036623477935791016,0.01506653893738985,0.05246857926249504,3.0497143268585205,0.0461280532181263,-0.02585221454501152,0.008726096712052822,0.9987437129020691,0,0,0,0,-0.05550999939441681,-0.0010979999788105488,0.9961299896240234,4.978750228881836,-0.5249999761581421,0.7350000143051147,-35.99400329589844,-4.872000217437744,-47.82400131225586,0.0,0.0,2879,0,0,0,0,9218,248265,-157,0.0,True
0.029825111851096153,0.14678792655467987,-0.0197793897241354,0.019706424325704575,0.1709383726119995,-0.027702275663614273,0.002881404012441635,0.01887473091483116,-0.0045539140701293945,0.012588423676788807,0.051877863705158234,3.04901385307312,0.04644445329904556,-0.02561180852353573,0.0074844942428171635,0.9987457990646362,0,0,0,0,-0.05483900010585785,-0.0012809999752789736,0.9941169619560242,-0.6737499833106995,-1.9862500429153442,-0.2800000011920929,-35.92399978637695,-4.830000400543213,-48.69200134277344,0.0,0.0,2880,0,0,0,0,9218,248366,-157,0.0,True
0.029704641550779343,0.14597681164741516,-0.01963709108531475,0.0191170796751976,0.1692754179239273,-0.039069026708602905,-0.001864008605480194,0.024689842015504837,-0.008977293968200684,0.011054729111492634,0.05124834552407265,3.0488903522491455,0.04648515209555626,-0.0253327414393425,0.006705935578793287,0.9987561702728271,0,0,0,0,-0.05520499870181084,-0.002744999947026372,1.0002169609069824,4.130000114440918,-1.0499999523162842,0.6387500166893005,-36.022003173828125,-4.395999908447266,-47.95000076293945,0.0,0.0,2883,0,0,0,0,9218,248467,-157,0.0,True
