pn,pe,pd,vn,ve,vd,an,ae,ad,roll,pitch,yaw,q0,q1,q2,q3,lat,lng,alt,sat,ax,ay,az,gx,gy,gz,mx,my,mz,baro_temp,baro_press,baro_alt,batt_voltage,batt_percent,launch_lat,launch_lng,launch_alt,system_status,system_time,rssi,snr,connectionstatus
4.520359039306641,7.201052665710449,-7.65938663482666,6.311685085296631,10.054681777954102,-10.6946439743042,0.44917815923690796,0.7155527472496033,-0.7610963582992554,1.202186107635498,-0.6789624094963074,-0.7713643908500671,0.7906721830368042,0.39066874980926514,-0.45534440875053406,-0.11783691495656967,0,0,0,0,-0.06533099710941315,0.11120299994945526,0.8684569597244263,19.635000228881836,7.525000095367432,-15.78499984741211,-45.290000915527344,-5.61400032043457,-45.961997985839844,17.770000457763672,-56164.0,nan,4825,167,0,0,0,32,1440,-157,0.0,True
4.6129560470581055,7.3492536544799805,-7.818214416503906,6.220048427581787,10.0022554397583,-10.800559043884277,-0.6320985555648804,-0.3616293966770172,-0.7305862903594971,1.3054568767547607,-0.681394100189209,-0.8055525422096252,0.7685955762863159,0.42262735962867737,-0.46851804852485657,-0.10686169564723969,0,0,0,0,-0.4747629761695862,-0.018177999183535576,-0.614147961139679,286.6762390136719,-54.407501220703125,-10.456250190734863,-43.94599914550781,-4.326000213623047,-45.961997985839844,17.959999084472656,-150267.0,nan,4825,167,0,0,0,2,1448,-157,0.0,True
4.705837726593018,7.498612880706787,-7.979426383972168,6.294326305389404,10.121602058410645,-10.920260429382324,0.5100817680358887,0.8195799589157104,-0.8220154047012329,1.304046630859375,-0.6819207668304443,-0.8034549355506897,0.7690293788909912,0.42245620489120483,-0.4681488573551178,-0.10623001307249069,0,0,0,0,-0.059230998158454895,0.12572099268436432,0.9717299938201904,31.43000030517578,-7.157500267028809,0.008750000037252903,-44.268001556396484,-4.8580002784729,-46.20000076293945,17.959999084472656,102055.0,-60.58838653564453,4818,166,0,0,0,2,1463,-157,0.0,True
4.798126220703125,7.6470136642456055,-8.139472007751465,6.367010116577148,10.23796272277832,-11.036850929260254,0.5082431435585022,0.8136529326438904,-0.8152623176574707,1.2924070358276367,-0.68181973695755,-0.7978148460388184,0.7717786431312561,0.4193142056465149,-0.4663120210170746,-0.10680819302797318,0,0,0,0,-0.057767000049352646,0.12547700107097626,0.9671549797058105,0.3149999976158142,3.771250009536743,0.6912500262260437,-44.45000076293945,-4.746000289916992,-46.11600112915039,17.959999084472656,102055.0,-60.58838653564453,4826,167,0,0,0,2,1478,-157,0.0,True
4.8965044021606445,7.8051958084106445,-8.309924125671387,6.44352388381958,10.3600492477417,-11.158907890319824,0.5078166127204895,0.8102831840515137,-0.8100835680961609,1.2841072082519531,-0.6822282075881958,-0.7948461771011353,0.7736693620681763,0.41670218110084534,-0.4653720557689667,-0.10746783763170242,0,0,0,0,-0.05697399750351906,0.12553799152374268,0.9651419520378113,8.154999732971191,-5.302500247955322,0.33250001072883606,-43.763999938964844,-5.25,-46.172000885009766,17.969999313354492,102057.0,-60.75749588012695,4818,166,0,0,0,2,1498,-157,0.0,True
4.994675159454346,7.9630279541015625,-8.479850769042969,6.518867015838623,10.479998588562012,-11.278156280517578,0.5070472955703735,0.8072399497032166,-0.8025214672088623,1.2721374034881592,-0.6819594502449036,-0.7891435027122498,0.7764638066291809,0.413451611995697,-0.4634607136249542,-0.1081208884716034,0,0,0,0,-0.05605899915099144,0.12614800035953522,0.9636780023574829,0.6387500166893005,3.0450000762939453,0.33250001072883606,-44.2400016784668,-5.053999900817871,-46.45199966430664,17.969999313354492,102057.0,-60.75749588012695,4818,166,0,0,0,2,1508,-157,0.0,True
5.094609260559082,8.123666763305664,-8.6526460647583,6.5949249267578125,10.599910736083984,-11.396931648254395,0.5086995363235474,0.8020126819610596,-0.7944109439849854,1.2625300884246826,-0.6822216510772705,-0.7855460047721863,0.7786331176757812,0.41048720479011536,-0.4622807800769806,-0.10886485874652863,0,0,0,0,-0.05538799986243248,0.12291499972343445,0.962336003780365,4.87375020980835,-3.5787501335144043,0.48124998807907104,-44.14200210571289,-4.690000057220459,-46.3120002746582,17.969999313354492,102057.0,-60.75749588012695,4812,165,0,0,0,2,1523,-157,0.0,True
5.193066120147705,8.281896591186523,-8.8226957321167,6.668884754180908,10.716338157653809,-11.51158618927002,0.5078279972076416,0.7994217872619629,-0.7872483134269714,1.2524653673171997,-0.6820258498191833,-0.7806835770606995,0.7809590101242065,0.4077310562133789,-0.4606764316558838,-0.10935129225254059,0,0,0,0,-0.05550999939441681,0.1231589987874031,0.9612379670143127,5.46875,0.5249999761581421,0.09624999761581421,-44.660003662109375,-5.138000011444092,-46.060001373291016,17.989999771118164,102062.0,-61.16969680786133,4813,165,0,0,0,2,1538,-157,0.0,True
5.294878005981445,8.445480346679688,-8.998332977294922,6.7442097663879395,10.834877014160156,-11.627561569213867,0.5057880282402039,0.7959625720977783,-0.7787493467330933,1.2419109344482422,-0.6820955872535706,-0.7764453887939453,0.7833343148231506,0.4045622944831848,-0.45925864577293396,-0.11010044068098068,0,0,0,0,-0.05703499913215637,0.12328099459409714,0.959102988243103,2.8262500762939453,-2.047499895095825,0.6037499904632568,-44.380001068115234,-5.2920002937316895,-46.15800094604492,17.989999771118164,102038.0,-59.182674407958984,4830,167,0,0,0,2,1559,-157,0.0,True
5.845077991485596,9.328784942626953,-9.943578720092773,7.138601779937744,11.451053619384766,-12.217554092407227,0.508806586265564,0.7858323454856873,-0.7423669099807739,1.1896523237228394,-0.6814451217651367,-0.7538217306137085,0.7949655055999756,0.3892431855201721,-0.4516489505767822,-0.11326415836811066,0,0,0,0,-0.05416800081729889,0.12413499504327774,0.9614819884300232,9.975000381469727,-5.731249809265137,0.38499999046325684,-44.380001068115234,-5.110000133514404,-46.03200149536133,18.110000610351562,102067.0,-61.5818977355957,4815,166,0,0,0,2,1633,-157,0.0,True
6.560817718505859,10.475460052490234,-11.161765098571777,7.619443893432617,12.18930721282959,-12.8922119140625,0.5055298805236816,0.7661874294281006,-0.6850645542144775,1.1132097244262695,-0.6769222617149353,-0.7190997004508972,0.8115801215171814,0.36729690432548523,-0.4391549229621887,-0.11764588207006454,0,0,0,0,-0.0558759979903698,0.12358599901199341,0.9609329700469971,6.116250038146973,-2.3450000286102295,0.4987500011920929,-44.715999603271484,-4.802000045776367,-45.597999572753906,18.200000762939453,102072.0,-61.994102478027344,4826,167,0,0,0,2,1730,-157,0.0,True
7.3287482261657715,11.701754570007324,-12.452214241027832,8.103515625,12.916257858276367,-13.522139549255371,0.5011811852455139,0.7457095384597778,-0.6341876983642578,1.0416216850280762,-0.6708124876022339,-0.6860875487327576,0.8266353011131287,0.3464635908603668,-0.42684024572372437,-0.1213112398982048,0,0,0,0,-0.05538799986243248,0.12797799706459045,0.9661179780960083,0.6737499833106995,-0.13124999403953552,0.612500011920929,-44.492000579833984,-5.460000038146973,-45.12200164794922,18.309999465942383,102063.0,-61.25425338745117,4820,166,0,0,0,2,1830,-157,0.0,True
8.270174026489258,13.198627471923828,-14.009173393249512,8.654030799865723,13.725180625915527,-14.181924819946289,0.49510669708251953,0.7209790349006653,-0.5710062980651855,0.9546576738357544,-0.6592186689376831,-0.6449670195579529,0.8444833755493164,0.3211720287799835,-0.4103280305862427,-0.12537053227424622,0,0,0,0,-0.05618099868297577,0.12590399384498596,0.9643489718437195,2.336250066757202,0.38499999046325684,0.5249999761581421,-44.50600051879883,-5.082000255584717,-45.87800216674805,18.399999618530273,102072.0,-61.994102478027344,4813,165,0,0,0,2,1940,-157,0.0,True
9.090349197387695,14.496413230895996,-15.342386245727539,9.100736618041992,14.366994857788086,-14.67311954498291,0.48748549818992615,0.6948911547660828,-0.5189059972763062,0.8819726705551147,-0.6461081504821777,-0.6107146143913269,0.8587951064109802,0.2997239828109741,-0.3954240381717682,-0.1286064088344574,0,0,0,0,-0.055997997522354126,0.125232994556427,0.9659959673881531,0.5687500238418579,1.4700000286102295,0.5687500238418579,-44.827999114990234,-4.73199987411499,-45.821998596191406,18.399999618530273,102074.0,-62.1632080078125,4812,165,0,0,0,2,2032,-157,0.0,True
10.0506591796875,16.00819969177246,-16.875873565673828,9.58814811706543,15.052131652832031,-15.164215087890625,0.4780283570289612,0.6652050614356995,-0.46181899309158325,0.8035922050476074,-0.6291462779045105,-0.5743748545646667,0.8738065361976624,0.27599069476127625,-0.37837499380111694,-0.1318855583667755,0,0,0,0,-0.055997997522354126,0.12498899549245834,0.9705100059509277,4.182499885559082,-2.817500114440918,0.5074999928474426,-44.15599822998047,-5.180000305175781,-45.7660026550293,18.450000762939453,102093.0,-63.73274612426758,4813,165,0,0,0,2,2135,-157,0.0,True
11.022960662841797,17.530302047729492,-18.39899444580078,10.044331550598145,15.680156707763672,-15.585190773010254,0.46092236042022705,0.6284664273262024,-0.4105483889579773,0.7263931035995483,-0.6075881719589233,-0.5384839773178101,0.8882653117179871,0.25240084528923035,-0.3596642017364502,-0.1348361372947693,0,0,0,0,-0.05526600033044815,0.12443999946117401,0.9676429629325867,1.4262499809265137,0.5249999761581421,0.4987500011920929,-43.98800277709961,-4.998000144958496,-45.56999969482422,18.450000762939453,102072.0,-61.994102478027344,4813,165,0,0,0,2,2234,-157,0.0,True
12.057821273803711,19.14118194580078,-19.98888397216797,10.490553855895996,16.283523559570312,-15.959243774414062,0.4399988651275635,0.5914273262023926,-0.35159552097320557,0.6460627913475037,-0.5805212259292603,-0.5025100111961365,0.9028593897819519,0.22713497281074524,-0.33843016624450684,-0.13791337609291077,0,0,0,0,-0.057888999581336975,0.12541599571704865,0.9719739556312561,3.771250009536743,-0.8924999833106995,0.42000001668930054,-44.884002685546875,-4.844000339508057,-45.65400314331055,18.489999771118164,102068.0,-61.66645431518555,4812,165,0,0,0,2,2335,-157,0.0,True
13.252435684204102,20.98957061767578,-21.786291122436523,10.958163261413574,16.902578353881836,-16.308645248413086,0.4153953492641449,0.5457121133804321,-0.29226577281951904,0.5576498508453369,-0.5450208187103271,-0.46513742208480835,0.9182445406913757,0.19829092919826508,-0.31281572580337524,-0.14132460951805115,0,0,0,0,-0.054655998945236206,0.12663599848747253,0.9758169651031494,4.235000133514404,-0.9624999761581421,0.3762499988079071,-44.57600021362305,-4.746000289916992,-45.61199951171875,18.520000457763672,102070.0,-61.83027648925781,4807,165,0,0,0,2,2447,-157,0.0,True
14.29951286315918,22.60049819946289,-23.330434799194336,11.326018333435059,17.381593704223633,-16.55313491821289,0.3861907124519348,0.5002735257148743,-0.24167662858963013,0.48402541875839233,-0.5098342895507812,-0.4361569583415985,0.9304835200309753,0.17344725131988525,-0.289137601852417,-0.14425984025001526,0,0,0,0,-0.05618099868297577,0.12553799152374268,0.977524995803833,4.130000114440918,-0.6912500262260437,0.4025000035762787,-44.422000885009766,-5.501999855041504,-45.667999267578125,18.530000686645508,102080.0,-62.65996551513672,4812,165,0,0,0,2,2541,-157,0.0,True
15.428953170776367,24.32944679260254,-24.96599578857422,11.680074691772461,17.83621597290039,-16.762325286865234,0.35002025961875916,0.44725877046585083,-0.19403010606765747,0.4079817533493042,-0.46909791231155396,-0.4099912643432617,0.9422473311424255,0.14657443761825562,-0.2628847062587738,-0.1477849930524826,0,0,0,0,-0.05764500051736832,0.12413499504327774,0.9764269590377808,4.31374979019165,-0.6737499833106995,0.5774999856948853,-44.39400100708008,-5.2920002937316895,-46.284000396728516,18.540000915527344,102066.0,-61.502628326416016,4823,166,0,0,0,2,2639,-157,0.0,True
16.55571746826172,26.046175003051758,-26.56938362121582,11.990265846252441,18.228137969970703,-16.922407150268555,0.31471529603004456,0.39441898465156555,-0.1530550718307495,0.3346623480319977,-0.4265909492969513,-0.3905270993709564,0.9523618221282959,0.11918266117572784,-0.23630352318286896,-0.15238472819328308,0,0,0,0,-0.054655998945236206,0.12462300062179565,0.9764269590377808,4.09499979019165,-0.9275000095367432,0.3499999940395355,-44.380001068115234,-4.8580002784729,-45.16400146484375,18.530000686645508,102075.0,-62.247764587402344,4817,166,0,0,0,2,2739,-157,0.0,True
17.78598403930664,27.91234016418457,-28.291263580322266,12.280027389526367,18.58843994140625,-17.050264358520508,0.26827162504196167,0.33233609795570374,-0.11152905225753784,0.2582143545150757,-0.37876245379447937,-0.3813711106777191,0.9610256552696228,0.08877113461494446,-0.20723524689674377,-0.16078348457813263,0,0,0,0,-0.05374100059270859,0.12443999946117401,0.97837895154953,4.331250190734863,-0.9800000190734863,0.39375001192092896,-44.36600112915039,-5.180000305175781,-45.262001037597656,18.530000686645508,102068.0,-61.66645431518555,4826,167,0,0,0,2,2841,-157,0.0,True
19.048294067382812,29.819377899169922,-30.030982971191406,12.525988578796387,18.888622283935547,-17.14214515686035,0.22756515443325043,0.2760215103626251,-0.08066695928573608,0.19500961899757385,-0.3356787860393524,-0.41172194480895996,0.9640014171600342,0.059972554445266724,-0.1823427379131317,-0.18464428186416626,0,0,0,0,-0.05581500008702278,0.12425699830055237,0.9769759774208069,4.43625020980835,-0.8487499952316284,0.5337499976158142,-43.91800308227539,-5.01200008392334,-45.36000061035156,18.540000915527344,102066.0,-61.502628326416016,4820,166,0,0,0,2,2943,-157,0.0,True
20.35133171081543,31.781124114990234,-31.802501678466797,12.743081092834473,19.1578311920166,-17.214384078979492,0.20873546600341797,0.26558810472488403,-0.06848764419555664,0.19322648644447327,-0.3244476616382599,-0.5068987011909485,0.9549482464790344,0.051850780844688416,-0.1794653832912445,-0.23119209706783295,0,0,0,0,-0.05624200031161308,0.1248059943318367,0.9813680052757263,3.9200000762939453,-1.0412499904632568,0.42000001668930054,-44.660003662109375,-5.1519999504089355,-45.43000030517578,18.530000686645508,102074.0,-62.1632080078125,4830,167,0,0,0,2,3045,-157,0.0,True
21.660926818847656,33.74798583984375,-33.56113052368164,12.944271087646484,19.424184799194336,-17.282817840576172,0.19498570263385773,0.26537075638771057,-0.06639969348907471,0.2048806995153427,-0.3173598647117615,-0.6077492237091064,0.9422455430030823,0.04932456091046333,-0.18017055094242096,-0.27846625447273254,0,0,0,0,-0.05593699961900711,0.12407399713993073,0.9805749654769897,3.9200000762939453,-0.9800000190734863,0.5249999761581421,-44.40800094604492,-4.788000106811523,-46.11600112915039,18.549999237060547,102057.0,-60.75749588012695,4807,165,0,0,0,2,3147,-157,0.0,True
22.930316925048828,35.65193176269531,-35.24718475341797,13.123741149902344,19.67797088623047,-17.344938278198242,0.18309400975704193,0.2672221064567566,-0.06360113620758057,0.21560704708099365,-0.3109455704689026,-0.703095018863678,0.9280312657356262,0.04679393768310547,-0.18110699951648712,-0.3225514590740204,0,0,0,0,-0.05849899724125862,0.1256600022315979,0.9819169640541077,3.9375,-0.9624999761581421,0.4112499952316284,-43.96000289916992,-4.605999946594238,-45.5,18.510000228881836,102074.0,-62.1632080078125,4813,165,0,0,0,2,3243,-157,0.0,True
24.295791625976562,37.6993522644043,-37.04286575317383,13.300966262817383,19.94820213317871,-17.407852172851562,0.16814623773097992,0.266910195350647,-0.05974864959716797,0.22958673536777496,-0.3014974892139435,-0.8039205074310303,0.9107695817947388,0.045862361788749695,-0.18157169222831726,-0.36837902665138245,0,0,0,0,-0.05593699961900711,0.1248059943318367,0.9818559885025024,4.304999828338623,-0.7612500190734863,0.42875000834465027,-43.98800277709961,-5.698000431060791,-45.61199951171875,18.549999237060547,102092.0,-63.65347671508789,4807,165,0,0,0,2,3344,-157,0.0,True
25.64162254333496,39.71875,-38.796451568603516,13.461830139160156,20.211416244506836,-17.46611213684082,0.15605367720127106,0.26518484950065613,-0.06108742952346802,0.2410447895526886,-0.29419082403182983,-0.9005988240242004,0.8919934630393982,0.043764982372522354,-0.18272852897644043,-0.41151347756385803,0,0,0,0,-0.057218000292778015,0.12267100065946579,0.9805139899253845,4.182499885559082,-0.9975000023841858,0.44624999165534973,-44.57600021362305,-4.605999946594238,-46.03200149536133,18.559999465942383,102088.0,-63.3205451965332,4826,167,0,0,0,2,3444,-157,0.0,True
26.970958709716797,41.716339111328125,-40.514461517333984,13.607213020324707,20.467435836791992,-17.51990509033203,0.1444028615951538,0.26382672786712646,-0.05747407674789429,0.2519626021385193,-0.2842223644256592,-0.9933807849884033,0.8720681071281433,0.04241245239973068,-0.1827709823846817,-0.4523010849952698,0,0,0,0,-0.057218000292778015,0.12413499504327774,0.9824050068855286,3.884999990463257,-0.9449999928474426,0.6650000214576721,-44.22599792480469,-5.194000244140625,-45.486000061035156,18.549999237060547,102074.0,-62.1632080078125,4826,167,0,0,0,2,3545,-157,0.0,True
28.39045524597168,43.85414123535156,-42.335323333740234,13.750070571899414,20.736284255981445,-17.574514389038086,0.13445867598056793,0.2627364695072174,-0.052463412284851074,0.262829065322876,-0.2741410434246063,-1.0900832414627075,0.8492555022239685,0.0407860092818737,-0.18310298025608063,-0.49382469058036804,0,0,0,0,-0.05648599937558174,0.12468399852514267,0.9829539656639099,4.269999980926514,-1.0237499475479126,0.48124998807907104,-44.827999114990234,-4.77400016784668,-45.821998596191406,18.579999923706055,102103.0,-64.56243896484375,4812,165,0,0,0,2,3645,-157,0.0,True
29.732120513916016,45.88047409057617,-44.044822692871094,13.873159408569336,20.985849380493164,-17.6236629486084,0.12248864769935608,0.25945061445236206,-0.05399852991104126,0.27184170484542847,-0.2634618878364563,-1.1787961721420288,0.8265635967254639,0.03934487700462341,-0.1828172206878662,-0.5311439633369446,0,0,0,0,-0.057461999356746674,0.1255989968776703,0.986735999584198,3.9987499713897705,-0.7787500023841858,0.5249999761581421,-44.61800003051758,-4.928000450134277,-45.93400192260742,18.549999237060547,102078.0,-62.4908561706543,4810,165,0,0,0,2,3746,-157,0.0,True
31.160106658935547,48.04461669921875,-45.853511810302734,13.991636276245117,21.246477127075195,-17.671781539916992,0.11274409294128418,0.25647154450416565,-0.048880040645599365,0.2804836928844452,-0.2505398988723755,-1.2705727815628052,0.8013229370117188,0.03823663666844368,-0.1818448305130005,-0.5689022541046143,0,0,0,0,-0.05605899915099144,0.125232994556427,0.9812459945678711,4.051249980926514,-1.0762499570846558,0.44624999165534973,-44.63199996948242,-4.564000129699707,-45.92000198364258,18.56999969482422,102105.0,-64.72625732421875,4825,167,0,0,0,2,3847,-157,0.0,True
32.559635162353516,50.17426681518555,-47.61674499511719,14.095949172973633,21.496313095092773,-17.716716766357422,0.10247765481472015,0.25445127487182617,-0.043901681900024414,0.2879703938961029,-0.23720313608646393,-1.3577147722244263,0.7756947875022888,0.037385493516922,-0.18056900799274445,-0.6038156747817993,0,0,0,0,-0.054899998009204865,0.12498899549245834,0.9847229719161987,3.8324999809265137,-0.7699999809265137,0.4987500011920929,-44.268001556396484,-4.788000106811523,-46.0880012512207,18.59000015258789,102057.0,-60.75749588012695,4826,167,0,0,0,2,3948,-157,0.0,True
34.01002883911133,52.391475677490234,-49.43562316894531,14.191777229309082,21.74873924255371,-17.75959014892578,0.08989108353853226,0.24976006150245667,-0.04207611083984375,0.2947051227092743,-0.22322428226470947,-1.4451935291290283,0.7483732104301453,0.036603592336177826,-0.1791008710861206,-0.6378271579742432,0,0,0,0,-0.05496099963784218,0.12511099874973297,0.9833199977874756,4.09499979019165,-1.0412499904632568,0.44624999165534973,-44.01599884033203,-4.6479997634887695,-46.07400131225586,18.56999969482422,102071.0,-61.914833068847656,4830,167,0,0,0,2,4048,-157,0.0,True
35.436222076416016,54.58274459838867,-51.2170295715332,14.275404930114746,21.99108123779297,-17.799104690551758,0.08083245158195496,0.24339747428894043,-0.04120314121246338,0.3004925847053528,-0.20921652019023895,-1.528893232345581,0.7207677960395813,0.036009833216667175,-0.1775176078081131,-0.6693224310874939,0,0,0,0,-0.057218000292778015,0.12309800088405609,0.9785009622573853,4.059999942779541,-0.7875000238418579,0.5425000190734863,-43.86199951171875,-5.067999839782715,-46.10200119018555,18.59000015258789,102076.0,-62.32703399658203,4817,166,0,0,0,2,4149,-157,0.0,True
36.901493072509766,56.846439361572266,-53.04109573364258,14.35016918182373,22.234149932861328,-17.837995529174805,0.07066353410482407,0.2375076562166214,-0.03609609603881836,0.3052862584590912,-0.1946002095937729,-1.6123026609420776,0.6918771862983704,0.03549838066101074,-0.17564336955547333,-0.6996513605117798,0,0,0,0,-0.058010999113321304,0.12468399852514267,0.9856989979743958,3.963750123977661,-0.8837500214576721,0.5249999761581421,-44.36600112915039,-5.194000244140625,-46.10200119018555,18.559999465942383,102055.0,-60.58838653564453,4808,165,0,0,0,2,4250,-157,0.0,True
38.33244705200195,59.07009506225586,-54.81757736206055,14.413637161254883,22.465147018432617,-17.87279510498047,0.05965723097324371,0.2337053269147873,-0.033457159996032715,0.30905184149742126,-0.17957617342472076,-1.691247820854187,0.6632683873176575,0.035388730466365814,-0.17345400154590607,-0.7273576855659485,0,0,0,0,-0.054899998009204865,0.12669700384140015,0.9871630072593689,4.016250133514404,-0.8837500214576721,0.45500001311302185,-44.660003662109375,-4.8580002784729,-46.63399887084961,18.579999923706055,102073.0,-62.07865524291992,4817,166,0,0,0,2,4350,-157,0.0,True
39.795440673828125,61.357418060302734,-56.629791259765625,14.46960163116455,22.693758010864258,-17.907026290893555,0.05176079645752907,0.2265932857990265,-0.029622256755828857,0.31119826436042786,-0.1642531454563141,-1.7692354917526245,0.6338749527931213,0.03517753258347511,-0.1708097904920578,-0.7537271976470947,0,0,0,0,-0.05636399984359741,0.12358599901199341,0.9863089919090271,4.042500019073486,-0.8662499785423279,0.44624999165534973,-44.1140022277832,-5.334000110626221,-45.87800216674805,18.59000015258789,102070.0,-61.83027648925781,4815,166,0,0,0,2,4451,-157,0.0,True
41.27719497680664,63.689022064208984,-58.462120056152344,14.516550064086914,22.918060302734375,-17.938501358032227,0.04105077683925629,0.21900632977485657,-0.033629655838012695,0.31175506114959717,-0.1487623155117035,-1.8451639413833618,0.60420823097229,0.03497302904725075,-0.1677071452140808,-0.7783975005149841,0,0,0,0,-0.055997997522354126,0.12547700107097626,0.9821609854698181,3.9987499713897705,-0.9712499976158142,0.5074999928474426,-43.90399932861328,-4.970000267028809,-45.836002349853516,18.579999923706055,102084.0,-62.987613677978516,4817,166,0,0,0,2,4553,-157,0.0,True
42.75051498413086,66.0229263305664,-60.2817497253418,14.554262161254883,23.133590698242188,-17.96615982055664,0.03536125272512436,0.21334214508533478,-0.02709716558456421,0.31233030557632446,-0.1341605931520462,-1.918433666229248,0.5746490359306335,0.03490651771426201,-0.16504038870334625,-0.8010267019271851,0,0,0,0,-0.05691299960017204,0.12431799620389938,0.9872239828109741,4.235000133514404,-0.9624999761581421,0.42875000834465027,-44.25400161743164,-5.110000133514404,-45.93400192260742,18.59000015258789,102095.0,-63.90185546875,4808,165,0,0,0,2,4654,-157,0.0,True
44.21485900878906,68.35838317871094,-62.088768005371094,14.584762573242188,23.340364456176758,-17.993366241455078,0.02846335619688034,0.2063674032688141,-0.02818286418914795,0.3112389147281647,-0.11982041597366333,-1.9884816408157349,0.5457098484039307,0.034782525151968,-0.16189968585968018,-0.8217718005180359,0,0,0,0,-0.05593699961900711,0.12303699553012848,0.9846619963645935,4.235000133514404,-0.8050000071525574,0.5337499976158142,-44.590003967285156,-4.815999984741211,-45.667999267578125,18.610000610351562,102074.0,-62.1632080078125,4803,164,0,0,0,2,4755,-157,0.0,True
45.680110931396484,70.71143341064453,-63.896236419677734,14.60736083984375,23.54012107849121,-18.017717361450195,0.020840954035520554,0.19963189959526062,-0.021707236766815186,0.3087766766548157,-0.10576604306697845,-2.05540132522583,0.5170965790748596,0.03466184809803963,-0.15842676162719727,-0.8406203389167786,0,0,0,0,-0.05770599842071533,0.1255989968776703,0.9860039949417114,4.226250171661377,-0.918749988079071,0.38499999046325684,-44.645999908447266,-4.5360002517700195,-45.948001861572266,18.59000015258789,102088.0,-63.3205451965332,4818,166,0,0,0,2,4856,-157,0.0,True
47.174625396728516,73.12847137451172,-65.73976135253906,14.623658180236816,23.734315872192383,-18.041135787963867,0.01390698179602623,0.1891484558582306,-0.024182796478271484,0.3055986166000366,-0.09155216068029404,-2.1211023330688477,0.48847541213035583,0.034808170050382614,-0.15473806858062744,-0.8582349419593811,0,0,0,0,-0.05648599937558174,0.12425699830055237,0.9846619963645935,4.025000095367432,-0.7612500190734863,0.5862500071525574,-44.18400192260742,-5.01200008392334,-45.220001220703125,18.600000381469727,102084.0,-62.987613677978516,4812,165,0,0,0,2,4957,-157,0.0,True
48.6148796081543,75.47409057617188,-67.5169906616211,14.632929801940918,23.913768768310547,-18.06159019470215,0.008433245122432709,0.18391619622707367,-0.017285823822021484,0.3021320104598999,-0.07887156307697296,-2.1820287704467773,0.46143409609794617,0.03485023230314255,-0.1513591706752777,-0.8736634254455566,0,0,0,0,-0.05593699961900711,0.12614800035953522,0.9865529537200928,4.051249980926514,-0.7699999809265137,0.5162500143051147,-44.198001861572266,-4.7179999351501465,-45.836002349853516,18.510000228881836,102074.0,-62.1632080078125,4820,166,0,0,0,2,5057,-157,0.0,True
50.11286163330078,77.93084716796875,-69.36656188964844,14.638144493103027,24.092065811157227,-18.080833435058594,0.0019025802612304688,0.17164552211761475,-0.019000351428985596,0.2973196804523468,-0.0657297745347023,-2.242781162261963,0.43398138880729675,0.03505399823188782,-0.14742307364940643,-0.8882765173912048,0,0,0,0,-0.05581500008702278,0.1265140026807785,0.9843569993972778,3.9725000858306885,-0.9012500047683716,0.45500001311302185,-44.01599884033203,-4.970000267028809,-45.52799987792969,18.549999237060547,102081.0,-62.7445182800293,4810,165,0,0,0,2,5159,-157,0.0,True
51.70112609863281,80.55479431152344,-71.32933807373047,14.637528419494629,24.27259063720703,-18.09884262084961,-0.0011399462819099426,0.16497890651226044,-0.015877604484558105,0.2916540503501892,-0.05313974246382713,-2.3044166564941406,0.4058762192726135,0.0350508913397789,-0.14335162937641144,-0.9022781252861023,0,0,0,0,-0.056791000068187714,0.12340299785137177,0.988565981388092,4.077499866485596,-1.0499999523162842,0.45500001311302185,-44.00200271606445,-4.77400016784668,-45.961997985839844,18.56999969482422,102074.0,-62.1632080078125,4812,165,0,0,0,2,5267,-157,0.0,True
53.0919189453125,82.86852264404297,-73.04988861083984,14.633195877075195,24.42207145690918,-18.113309860229492,-0.005193483084440231,0.15785260498523712,-0.013335824012756348,0.28628137707710266,-0.0427420400083065,-2.355161190032959,0.3821480870246887,0.03512084111571312,-0.13981224596500397,-0.9129754900932312,0,0,0,0,-0.05642499774694443,0.12340299785137177,0.9899689555168152,4.208750247955322,-1.0325000286102295,0.5862500071525574,-44.35200119018555,-4.914000034332275,-45.794002532958984,18.59000015258789,102086.0,-63.15672302246094,4818,166,0,0,0,2,5362,-157,0.0,True
54.52023696899414,85.26011657714844,-74.81902313232422,14.624955177307129,24.56791877746582,-18.12740707397461,-0.009807471185922623,0.15003123879432678,-0.015467166900634766,0.2806362211704254,-0.0327211432158947,-2.4052329063415527,0.358660489320755,0.035228557884693146,-0.13626791536808014,-0.9230086207389832,0,0,0,0,-0.05575399845838547,0.12334199994802475,0.9892370104789734,4.235000133514404,-0.7699999809265137,0.6650000214576721,-44.380001068115234,-4.746000289916992,-45.87800216674805,18.600000381469727,102074.0,-62.1632080078125,4803,164,0,0,0,2,5463,-157,0.0,True
56.00248336791992,87.75834655761719,-76.65753936767578,14.612847328186035,24.711145401000977,-18.13994789123535,-0.01521347463130951,0.14074087142944336,-0.011992692947387695,0.2736412286758423,-0.022908322513103485,-2.4539341926574707,0.33559322357177734,0.03530266508460045,-0.1321955919265747,-0.9322465062141418,0,0,0,0,-0.05569300055503845,0.12413499504327774,0.9889929890632629,4.086249828338623,-0.875,0.42875000834465027,-44.12800216674805,-4.172000408172607,-45.54199981689453,18.610000610351562,102083.0,-62.90834426879883,4820,166,0,0,0,2,5563,-157,0.0,True
57.49617385864258,90.29254913330078,-78.51325988769531,14.597655296325684,24.84741973876953,-18.15162467956543,-0.017911795526742935,0.13158820569515228,-0.012597978115081787,0.26740914583206177,-0.014311549253761768,-2.5006701946258545,0.3132743239402771,0.03526921942830086,-0.12872038781642914,-0.9404591917991638,0,0,0,0,-0.053984999656677246,0.12260999530553818,0.9882609844207764,4.252500057220459,-0.918749988079071,0.6037499904632568,-44.50600051879883,-5.067999839782715,-45.794002532958984,18.610000610351562,102084.0,-62.987613677978516,4820,166,0,0,0,2,5664,-157,0.0,True
59.16804885864258,93.14848327636719,-80.59422302246094,14.578191757202148,24.990732192993164,-18.16405487060547,-0.019229959696531296,0.12371606379747391,-0.012065410614013672,0.26003703474998474,-0.005557699594646692,-2.550122022628784,0.2896018624305725,0.03516227379441261,-0.12477995455265045,-0.9486779570579529,0,0,0,0,-0.05441199988126755,0.125232994556427,0.9864310026168823,3.8762500286102295,-1.006250023841858,0.38499999046325684,-44.22599792480469,-4.788000106811523,-45.486000061035156,18.639999389648438,102072.0,-61.994102478027344,4803,164,0,0,0,2,5778,-157,0.0,True
60.48077392578125,95.40496063232422,-82.23114776611328,14.561508178710938,25.09713363647461,-18.172523498535156,-0.019183911383152008,0.1187756285071373,-0.010324716567993164,0.2541446089744568,0.0005695373401977122,-2.586315870285034,0.27200761437416077,0.0350131019949913,-0.12177103012800217,-0.9541404247283936,0,0,0,0,-0.05471700057387352,0.12346399575471878,0.9877730011940002,4.331250190734863,-0.9275000095367432,0.5337499976158142,-44.492000579833984,-4.970000267028809,-45.19200134277344,18.6200008392334,102073.0,-62.07865524291992,4815,166,0,0,0,2,5868,-157,0.0,True
61.80552291870117,97.69428253173828,-83.88581085205078,14.54414176940918,25.198827743530273,-18.181602478027344,-0.016350694000720978,0.10946346819400787,-0.015677571296691895,0.24836242198944092,0.006398922763764858,-2.6210834980010986,0.2550908923149109,0.03494523465633392,-0.11885032057762146,-0.9591314196586609,0,0,0,0,-0.0571569986641407,0.12358599901199341,0.9850890040397644,3.9549999237060547,-1.2074999809265137,0.48124998807907104,-43.90399932861328,-4.983999729156494,-45.486000061035156,18.610000610351562,102078.0,-62.4908561706543,4826,167,0,0,0,2,5967,-157,0.0,True
63.294490814208984,100.281494140625,-85.74895477294922,14.523260116577148,25.306486129760742,-18.19023895263672,-0.023264281451702118,0.10472824424505234,-0.006061971187591553,0.24215620756149292,0.012273254804313183,-2.6580569744110107,0.23706485331058502,0.03483514487743378,-0.1157863661646843,-0.9641225934028625,0,0,0,0,-0.05526600033044815,0.12620899081230164,0.9889319539070129,4.471250057220459,-1.006250023841858,0.5950000286102295,-44.57600021362305,-5.1519999504089355,-45.23400115966797,18.610000610351562,102080.0,-62.65996551513672,4820,166,0,0,0,2,6068,-157,0.0,True
64.8467788696289,102.99406433105469,-87.69498443603516,14.50124740600586,25.412216186523438,-18.19773292541504,-0.01974118873476982,0.09835844486951828,-0.005762636661529541,0.23580719530582428,0.017698772251605988,-2.6941447257995605,0.2194141000509262,0.03466828539967537,-0.11272260546684265,-0.9686620831489563,0,0,0,0,-0.054655998945236206,0.12334199994802475,0.9889929890632629,4.077499866485596,-0.9275000095367432,0.48124998807907104,-44.17000198364258,-5.208000183105469,-45.836002349853516,18.6299991607666,102071.0,-61.914833068847656,4813,165,0,0,0,2,6169,-157,0.0,True
66.3363265991211,105.6112060546875,-89.56590270996094,14.47978401184082,25.507509231567383,-18.204837799072266,-0.020463615655899048,0.09281488507986069,-0.007686316967010498,0.22981064021587372,0.02221735380589962,-2.726351261138916,0.2036227434873581,0.0344322994351387,-0.10988707095384598,-0.972437858581543,0,0,0,0,-0.05605899915099144,0.12346399575471878,0.987589955329895,4.042500019073486,-0.8050000071525574,0.5687500238418579,-44.54800033569336,-5.334000110626221,-46.15800094604492,18.6200008392334,102066.0,-61.502628326416016,4812,165,0,0,0,2,6271,-157,0.0,True
67.79695892333984,108.1906509399414,-91.4039306640625,14.458138465881348,25.59577178955078,-18.21101188659668,-0.020937900990247726,0.08431601524353027,-0.005464494228363037,0.22409096360206604,0.025916721671819687,-2.7557969093322754,0.18916401267051697,0.03407200798392296,-0.10723889619112015,-0.975658655166626,0,0,0,0,-0.05654699727892876,0.12675799429416656,0.9886269569396973,4.226250171661377,-1.006250023841858,0.5774999856948853,-44.310001373291016,-5.180000305175781,-45.87800216674805,18.6200008392334,102079.0,-62.57541275024414,4803,164,0,0,0,2,6372,-157,0.0,True
69.26980590820312,110.80424499511719,-93.26068115234375,14.43720817565918,25.679658889770508,-18.21624183654785,-0.018632084131240845,0.08097141981124878,-0.005578756332397461,0.21862636506557465,0.029356487095355988,-2.7835850715637207,0.17548687756061554,0.033779967576265335,-0.10472261905670166,-0.9784965515136719,0,0,0,0,-0.057583998888731,0.12425699830055237,0.9884439706802368,4.130000114440918,-0.9449999928474426,0.5600000023841858,-44.36600112915039,-5.389999866485596,-45.68199920654297,18.610000610351562,102083.0,-62.90834426879883,4810,165,0,0,0,2,6474,-157,0.0,True
70.70220184326172,113.35755157470703,-95.06951904296875,14.417579650878906,25.75589942932129,-18.222043991088867,-0.02012135460972786,0.07685227692127228,-0.007565915584564209,0.2141001671552658,0.03242659196257591,-2.809040069580078,0.1629226803779602,0.03357940912246704,-0.10267018526792526,-0.9808914661407471,0,0,0,0,-0.05654699727892876,0.12425699830055237,0.9847229719161987,3.771250009536743,-0.8137500286102295,0.5162500143051147,-43.96000289916992,-5.418000221252441,-44.757999420166016,18.600000381469727,102081.0,-62.7445182800293,4800,164,0,0,0,2,6574,-157,0.0,True
72.13096618652344,115.9151840209961,-96.87673950195312,14.39858341217041,25.82831382751465,-18.227901458740234,-0.018741879612207413,0.0731266438961029,-0.004452228546142578,0.20945271849632263,0.03507278859615326,-2.8326497077941895,0.15126217901706696,0.03331247717142105,-0.10057193040847778,-0.9829809069633484,0,0,0,0,-0.05429000034928322,0.12340299785137177,0.9889929890632629,3.9725000858306885,-0.7962499856948853,0.4025000035762787,-44.380001068115234,-5.362000465393066,-45.262001037597656,18.6200008392334,102090.0,-63.48436737060547,4813,165,0,0,0,2,6675,-157,0.0,True
73.59815979003906,118.55230712890625,-98.73556518554688,14.379416465759277,25.8981990814209,-18.233510971069336,-0.017136350274086,0.06840554624795914,-0.008410990238189697,0.2044718861579895,0.03741950914263725,-2.854703664779663,0.14036840200424194,0.0330059677362442,-0.09831278026103973,-0.9848338961601257,0,0,0,0,-0.053557999432086945,0.12450099736452103,0.9845399856567383,4.09499979019165,-0.7787500023841858,0.4724999964237213,-43.8900032043457,-5.61400032043457,-45.597999572753906,18.6299991607666,102085.0,-63.072166442871094,4823,166,0,0,0,2,6776,-157,0.0,True
75.08551025390625,121.23628997802734,-100.62299346923828,14.360937118530273,25.96512222290039,-18.238346099853516,-0.018466420471668243,0.06468206644058228,-0.006296038627624512,0.19985300302505493,0.039475440979003906,-2.8754544258117676,0.1301100105047226,0.0326964370906353,-0.09623493999242783,-0.9864598512649536,0,0,0,0,-0.05496099963784218,0.12370799481868744,0.986735999584198,4.21750020980835,-1.190000057220459,0.5600000023841858,-44.21200180053711,-5.1660003662109375,-45.36000061035156,18.600000381469727,102079.0,-62.57541275024414,4817,166,0,0,0,2,6878,-157,0.0,True
76.53135681152344,123.8550796508789,-102.46054077148438,14.343670845031738,26.02553367614746,-18.242631912231445,-0.01383398100733757,0.05892759934067726,-0.005196928977966309,0.1959305703639984,0.04132896661758423,-2.8940696716308594,0.12088976800441742,0.032476555556058884,-0.09448303282260895,-0.9878089427947998,0,0,0,0,-0.05941399931907654,0.12504999339580536,0.9869799613952637,3.9725000858306885,-0.7262499928474426,0.5249999761581421,-44.590003967285156,-5.600000381469727,-45.052001953125,18.610000610351562,102082.0,-62.823787689208984,4823,166,0,0,0,2,6979,-157,0.0,True
77.93142700195312,126.39945983886719,-104.24231719970703,14.328278541564941,26.081279754638672,-18.247053146362305,-0.017587222158908844,0.05773898586630821,-0.004534602165222168,0.19218160212039948,0.043081190437078476,-2.910756826400757,0.11261370033025742,0.032341450452804565,-0.09279590845108032,-0.9889483451843262,0,0,0,0,-0.05538799986243248,0.12242699414491653,0.9880169630050659,3.815000057220459,-0.9624999761581421,0.4724999964237213,-44.35200119018555,-5.61400032043457,-45.58400344848633,18.59000015258789,102064.0,-61.33352279663086,4808,165,0,0,0,2,7080,-157,0.0,True
79.37102508544922,129.02406311035156,-106.0768051147461,14.312280654907227,26.135406494140625,-18.250244140625,-0.014036893844604492,0.05410779267549515,-0.003933727741241455,0.18867596983909607,0.044274114072322845,-2.926760196685791,0.10469260066747665,0.032004136592149734,-0.09125228226184845,-0.9899741411209106,0,0,0,0,-0.055570997297763824,0.12328099459409714,0.9910059571266174,4.269999980926514,-0.9800000190734863,0.4375,-44.660003662109375,-5.348000526428223,-45.51400375366211,18.610000610351562,102088.0,-63.3205451965332,4815,166,0,0,0,2,7180,-157,0.0,True
80.84471130371094,131.71922302246094,-107.95722198486328,14.29655647277832,26.18791389465332,-18.254663467407227,-0.013978306204080582,0.05007164552807808,-0.004975497722625732,0.18480078876018524,0.045084163546562195,-2.941297769546509,0.09751439094543457,0.03155188634991646,-0.08952222764492035,-0.9908806681632996,0,0,0,0,-0.05575399845838547,0.12407399713993073,0.9878949522972107,4.173749923706055,-1.006250023841858,0.6212499737739563,-44.32400131225586,-5.278000354766846,-45.290000915527344,18.6200008392334,102078.0,-62.4908561706543,4812,165,0,0,0,2,7282,-157,0.0,True
82.29554748535156,134.38046264648438,-109.81073760986328,14.282891273498535,26.23629379272461,-18.258159637451172,-0.01433175802230835,0.04852652922272682,-0.004201948642730713,0.1813787817955017,0.04616541787981987,-2.9544246196746826,0.09100890904664993,0.03134346008300781,-0.08798021823167801,-0.9916421175003052,0,0,0,0,-0.05892599746584892,0.12578199803829193,0.9894809722900391,3.9725000858306885,-0.8837500214576721,0.29750001430511475,-44.3380012512207,-5.039999961853027,-45.724002838134766,18.6200008392334,102090.0,-63.48436737060547,4818,166,0,0,0,2,7382,-157,0.0,True
83.68536376953125,136.9366455078125,-111.58832550048828,14.269646644592285,26.280376434326172,-18.261371612548828,-0.011837832629680634,0.044649168848991394,-0.0020838379859924316,0.178850919008255,0.046805571764707565,-2.9664995670318604,0.08502772450447083,0.03102145716547966,-0.08688575774431229,-0.9922789931297302,0,0,0,0,-0.054655998945236206,0.12431799620389938,0.9885050058364868,4.261250019073486,-0.7699999809265137,0.33250001072883606,-44.12800216674805,-5.194000244140625,-45.066001892089844,18.610000610351562,102072.0,-61.994102478027344,4808,165,0,0,0,2,7482,-157,0.0,True
85.1719970703125,139.6781005859375,-113.49180603027344,14.256946563720703,26.325542449951172,-18.264617919921875,-0.011821381747722626,0.044003941118717194,-0.003278672695159912,0.17591695487499237,0.04747263714671135,-2.978271484375,0.07924885302782059,0.030720828101038933,-0.0855652391910553,-0.9930835962295532,0,0,0,0,-0.05593699961900711,0.12352500110864639,0.9885050058364868,4.348750114440918,-0.9537500143051147,0.4025000035762787,-44.380001068115234,-5.334000110626221,-45.724002838134766,18.610000610351562,102075.0,-62.247764587402344,4805,165,0,0,0,2,7583,-157,0.0,True
86.58849334716797,142.296630859375,-115.30735778808594,14.2454252243042,26.365766525268555,-18.26768684387207,-0.009663768112659454,0.0412009060382843,-0.0005130767822265625,0.17332664132118225,0.0480530820786953,-2.988243579864502,0.07425880432128906,0.03048880770802498,-0.08442657440900803,-0.9933714270591736,0,0,0,0,-0.05386300012469292,0.12529399991035461,0.9888100028038025,4.130000114440918,-0.7524999976158142,0.19249999523162842,-43.77800369262695,-4.73199987411499,-45.62600326538086,18.610000610351562,102064.0,-61.33352279663086,4817,166,0,0,0,2,7684,-157,0.0,True
88.04911804199219,145.00299072265625,-117.18128204345703,14.234395980834961,26.405670166015625,-18.271177291870117,-0.008197788149118423,0.03891054168343544,-0.0034109950065612793,0.17117398977279663,0.04852411895990372,-2.9980883598327637,0.06937837600708008,0.03023197129368782,-0.08348911255598068,-0.9938114285469055,0,0,0,0,-0.05660799890756607,0.12389099597930908,0.9878949522972107,4.077499866485596,-0.8924999833106995,0.6387500166893005,-44.198001861572266,-5.334000110626221,-46.172000885009766,18.6299991607666,102071.0,-61.914833068847656,4805,165,0,0,0,2,7786,-157,0.0,True
89.42948150634766,147.56626892089844,-118.9538803100586,14.224435806274414,26.441211700439453,-18.274343490600586,-0.010102108120918274,0.035152167081832886,-0.0012530684471130371,0.16870993375778198,0.04895413666963577,-3.0059518814086914,0.06548799574375153,0.030036283656954765,-0.08236782997846603,-0.994177520275116,0,0,0,0,-0.05459499731659889,0.12620899081230164,0.9878339767456055,4.235000133514404,-0.7350000143051147,0.5774999856948853,-43.91800308227539,-4.970000267028809,-45.836002349853516,18.610000610351562,102074.0,-62.1632080078125,4818,166,0,0,0,2,7886,-157,0.0,True
90.87921142578125,150.26373291015625,-120.81707763671875,14.215078353881836,26.476993560791016,-18.27716636657715,-0.0067395977675914764,0.03481091931462288,-0.0022369027137756348,0.16646745800971985,0.04943322390317917,-3.0138652324676514,0.06156489625573158,0.029879139736294746,-0.08135592192411423,-0.994513750076294,0,0,0,0,-0.05392399802803993,0.12291499972343445,0.9838079810142517,4.427500247955322,-0.8575000166893005,0.44624999165534973,-44.380001068115234,-4.830000400543213,-46.29800033569336,18.610000610351562,102073.0,-62.07865524291992,4813,165,0,0,0,2,7987,-157,0.0,True
92.37437438964844,153.0513153076172,-122.74028015136719,14.205870628356934,26.51192283630371,-18.280492782592773,-0.007937699556350708,0.033725906163454056,-0.002968430519104004,0.16459199786186218,0.04994984343647957,-3.0213303565979004,0.057884786278009415,0.02977481298148632,-0.08050613850355148,-0.9949556589126587,0,0,0,0,-0.0567299984395504,0.12407399713993073,0.9882609844207764,4.103750228881836,-0.6650000214576721,0.45500001311302185,-44.2400016784668,-5.0960001945495605,-45.61199951171875,18.6299991607666,102077.0,-62.41158676147461,4808,165,0,0,0,2,8090,-157,0.0,True
93.77145385742188,155.66087341308594,-124.53871154785156,14.197735786437988,26.543020248413086,-18.28321075439453,-0.01038343459367752,0.030806422233581543,-0.002304971218109131,0.16301479935646057,0.05024338886141777,-3.0277905464172363,0.054653529077768326,0.029620273038744926,-0.07982121407985687,-0.9950494170188904,0,0,0,0,-0.05685199797153473,0.1248059943318367,0.9930189847946167,4.261250019073486,-1.0149999856948853,0.5337499976158142,-44.08599853515625,-5.053999900817871,-45.45800018310547,18.6299991607666,102075.0,-62.247764587402344,4820,166,0,0,0,2,8189,-157,0.0,True
95.19744110107422,158.3290557861328,-126.37567138671875,14.189772605895996,26.573930740356445,-18.285329818725586,-0.007753193378448486,0.031384676694869995,-0.0026504993438720703,0.161922425031662,0.05041605606675148,-3.034313440322876,0.051415957510471344,0.029417479410767555,-0.07936915755271912,-0.9952651858329773,0,0,0,0,-0.05593699961900711,0.12639199197292328,0.9884439706802368,3.963750123977661,-0.7787500023841858,0.4375,-44.36600112915039,-5.2220001220703125,-45.597999572753906,18.639999389648438,102084.0,-62.987613677978516,4820,166,0,0,0,2,8290,-157,0.0,True
96.65473937988281,161.060546875,-128.2541961669922,14.182350158691406,26.605003356933594,-18.28727912902832,-0.006338845938444138,0.029892558231949806,-0.0016537904739379883,0.16093599796295166,0.05057501792907715,-3.040868043899536,0.04816064611077309,0.029212431982159615,-0.07897020876407623,-0.9954661130905151,0,0,0,0,-0.05660799890756607,0.12535499036312103,0.9892979860305786,4.427500247955322,-0.8050000071525574,0.7087500095367432,-44.310001373291016,-5.76800012588501,-45.709999084472656,18.6200008392334,102068.0,-61.66645431518555,4813,165,0,0,0,2,8391,-157,0.0,True
98.11317443847656,163.7986297607422,-130.13528442382812,14.175050735473633,26.634883880615234,-18.28897476196289,-0.009335946291685104,0.02813541330397129,-0.0017368197441101074,0.1598217785358429,0.05051489174365997,-3.046649694442749,0.04530568793416023,0.02892802096903324,-0.07849841564893723,-0.9956827163696289,0,0,0,0,-0.052887000143527985,0.12657499313354492,0.9892370104789734,3.9987499713897705,-0.8137500286102295,0.4987500011920929,-44.198001861572266,-5.460000038146973,-45.374000549316406,18.6299991607666,102082.0,-62.823787689208984,4810,165,0,0,0,2,8494,-157,0.0,True
99.43604278564453,166.28598022460938,-131.84249877929688,14.169107437133789,26.661468505859375,-18.290512084960938,-0.005878560245037079,0.029117019847035408,0.006158709526062012,0.15858125686645508,0.05044061318039894,-3.0512242317199707,0.043043069541454315,0.028685437515378,-0.07795156538486481,-0.9957975149154663,0,0,0,0,-0.05386300012469292,0.12584300339221954,0.9858819842338562,4.278749942779541,-0.9362500309944153,0.5950000286102295,-44.63199996948242,-5.53000020980835,-45.597999572753906,18.649999618530273,102070.0,-61.83027648925781,4807,165,0,0,0,2,8594,-157,0.0,True
100.88874816894531,169.02154541015625,-133.71800231933594,14.162945747375488,26.68971824645996,-18.289161682128906,-0.007904302328824997,0.02599993534386158,-0.0033758878707885742,0.15695981681346893,0.05035746097564697,-3.0553948879241943,0.04099203273653984,0.02844816818833351,-0.07720599323511124,-0.995948851108551,0,0,0,0,-0.05483900010585785,0.12401299923658371,0.9859429597854614,4.296249866485596,-0.9362500309944153,0.5074999928474426,-44.50600051879883,-4.8580002784729,-45.374000549316406,18.610000610351562,102070.0,-61.83027648925781,4823,166,0,0,0,2,8696,-157,0.0,True
102.3403549194336,171.75885009765625,-135.5928955078125,14.157917022705078,26.716289520263672,-18.291339874267578,-0.006976064294576645,0.02816300466656685,-0.004997551441192627,0.15619567036628723,0.05055026337504387,-3.059786319732666,0.03880750387907028,0.028359653428196907,-0.0768837183713913,-0.9960641860961914,0,0,0,0,-0.05441199988126755,0.12718500196933746,0.9880169630050659,4.025000095367432,-0.9800000190734863,0.5950000286102295,-44.4640007019043,-5.278000354766846,-45.24800109863281,18.6200008392334,102085.0,-63.072166442871094,4817,166,0,0,0,2,8798,-157,0.0,True
103.72785949707031,174.37867736816406,-137.38583374023438,14.15373706817627,26.741378784179688,-18.29381561279297,-0.0022894516587257385,0.02754216641187668,-0.00598299503326416,0.15545473992824554,0.05072992667555809,-3.0638697147369385,0.03677644208073616,0.028278399258852005,-0.07656894624233246,-0.9961674213409424,0,0,0,0,-0.05575399845838547,0.12511099874973297,0.9888100028038025,4.375,-1.09375,0.48124998807907104,-44.25400161743164,-4.970000267028809,-45.62600326538086,18.6299991607666,102080.0,-62.65996551513672,4813,165,0,0,0,2,8894,-157,0.0,True
105.21234130859375,177.18511962890625,-139.30494689941406,14.149346351623535,26.767169952392578,-18.295791625976562,-0.00374700129032135,0.022791540250182152,-0.0020194649696350098,0.1546216607093811,0.05082831531763077,-3.067337989807129,0.03505583107471466,0.028179965913295746,-0.07620132714509964,-0.996258020401001,0,0,0,0,-0.05685199797153473,0.12462300062179565,0.9861869812011719,4.340000152587891,-0.9275000095367432,0.6912500262260437,-44.32400131225586,-5.082000255584717,-45.47200012207031,18.639999389648438,102079.0,-62.57541275024414,4820,166,0,0,0,2,8996,-157,0.0,True
106.60064697265625,179.8129425048828,-141.10043334960938,14.145346641540527,26.79095458984375,-18.2978515625,-0.004824161529541016,0.023492315784096718,-0.0015468597412109375,0.15381664037704468,0.05085747689008713,-3.070591449737549,0.03344457969069481,0.028056997805833817,-0.07584569603204727,-0.9963434934616089,0,0,0,0,-0.056120000779628754,0.12498899549245834,0.9891759753227234,4.077499866485596,-0.8924999833106995,0.5862500071525574,-43.93199920654297,-4.605999946594238,-45.555999755859375,18.649999618530273,102070.0,-61.83027648925781,4812,165,0,0,0,2,9096,-157,0.0,True
108.03462982177734,182.53036499023438,-142.95559692382812,14.142218589782715,26.815147399902344,-18.298635482788086,-0.0035691000521183014,0.024282969534397125,-0.0006647109985351562,0.15282711386680603,0.05124134197831154,-3.0734047889709473,0.03204194828867912,0.028125476092100143,-0.07538516074419022,-0.9964256882667542,0,0,0,0,-0.055570997297763824,0.12504999339580536,0.9877730011940002,3.9375,-0.831250011920929,0.48124998807907104,-43.96000289916992,-5.194000244140625,-45.31800079345703,18.6299991607666,102064.0,-61.33352279663086,4828,167,0,0,0,2,9197,-157,0.0,True
109.48622131347656,185.28424072265625,-144.83407592773438,14.138347625732422,26.83858299255371,-18.299983978271484,-0.0040780045092105865,0.02273075468838215,-0.002633035182952881,0.15177567303180695,0.05113910883665085,-3.0756242275238037,0.03095404990017414,0.02797466143965721,-0.07489466667175293,-0.9964982867240906,0,0,0,0,-0.05483900010585785,0.12492799758911133,0.9882609844207764,4.164999961853027,-0.8662499785423279,0.45500001311302185,-43.96000289916992,-5.039999961853027,-44.926002502441406,18.639999389648438,102082.0,-62.823787689208984,4825,167,0,0,0,2,9297,-157,0.0,True
110.93130493164062,188.02890014648438,-146.70484924316406,14.134594917297363,26.86126136779785,-18.3023681640625,-0.004625573754310608,0.023522084578871727,-0.003340780735015869,0.15136368572711945,0.050901904702186584,-3.078274726867676,0.02964782528579235,0.02775108627974987,-0.07473037391901016,-0.9965575337409973,0,0,0,0,-0.05361899733543396,0.12382999807596207,0.9877730011940002,3.7274999618530273,-0.7612500190734863,0.4987500011920929,-44.10000228881836,-5.375999927520752,-45.5,18.6200008392334,102073.0,-62.07865524291992,4802,164,0,0,0,2,9399,-157,0.0,True
112.28634643554688,190.60520935058594,-148.4596405029297,14.131776809692383,26.88248634338379,-18.3043270111084,-0.00294625386595726,0.02426084131002426,-0.0007407069206237793,0.15112470090389252,0.05090370774269104,-3.080812454223633,0.02838614210486412,0.027653712779283524,-0.07464644312858582,-0.9966035485267639,0,0,0,0,-0.05685199797153473,0.12419600039720535,0.9907619953155518,4.21750020980835,-0.7087500095367432,0.6912500262260437,-44.35200119018555,-5.208000183105469,-45.52799987792969,18.6299991607666,102079.0,-62.57541275024414,4815,166,0,0,0,2,9498,-157,0.0,True
113.77920532226562,193.44642639160156,-150.3935546875,14.129205703735352,26.90559959411621,-18.306684494018555,-0.002603348344564438,0.02236827090382576,-0.0006558895111083984,0.15031316876411438,0.05105678364634514,-3.0828118324279785,0.02739478088915348,0.027644196525216103,-0.07426746189594269,-0.9966592192649841,0,0,0,0,-0.05538799986243248,0.12443999946117401,0.9902739524841309,4.322500228881836,-1.006250023841858,0.612500011920929,-44.17000198364258,-4.690000057220459,-45.47200012207031,18.639999389648438,102086.0,-63.15672302246094,4807,165,0,0,0,2,9601,-157,0.0,True
115.14810180664062,196.05433654785156,-152.16738891601562,14.127134323120117,26.92657470703125,-18.30795669555664,-0.004854466766119003,0.019604617729783058,-0.0024750828742980957,0.14917604625225067,0.05115145072340965,-3.083925247192383,0.026852022856473923,0.027634702622890472,-0.07371481508016586,-0.9967165589332581,0,0,0,0,-0.05624200031161308,0.12626999616622925,0.9874069690704346,4.103750228881836,-0.7524999976158142,0.39375001192092896,-44.1140022277832,-4.438000202178955,-44.926002502441406,18.6299991607666,102090.0,-63.48436737060547,4810,165,0,0,0,2,9701,-157,0.0,True
116.5632095336914,198.75271606445312,-154.00143432617188,14.125205993652344,26.94683837890625,-18.309429168701172,-0.002021573483943939,0.020409848541021347,0.0003331899642944336,0.14915341138839722,0.05127440765500069,-3.0855512619018555,0.02603692002594471,0.02763572335243225,-0.07372425496578217,-0.9967361688613892,0,0,0,0,-0.05569300055503845,0.12584300339221954,0.991798996925354,4.164999961853027,-0.8400000333786011,0.4112499952316284,-44.50600051879883,-4.6479997634887695,-45.13600158691406,18.65999984741211,102086.0,-63.15672302246094,4812,165,0,0,0,2,9801,-157,0.0,True
118.0267562866211,201.54598999023438,-155.89874267578125,14.12299919128418,26.967308044433594,-18.310903549194336,-0.0019592344760894775,0.018981069326400757,-0.005774497985839844,0.1484529972076416,0.05135630816221237,-3.086521625518799,0.02556011825799942,0.027631687000393867,-0.07338719069957733,-0.9967778921127319,0,0,0,0,-0.05636399984359741,0.12358599901199341,0.9882609844207764,3.858750104904175,-0.8400000333786011,0.4375,-44.4640007019043,-4.633999824523926,-45.54199981689453,18.6299991607666,102084.0,-62.987613677978516,4793,163,0,0,0,2,9903,-157,0.0,True
119.43740844726562,204.24070739746094,-157.72787475585938,14.12092113494873,26.986501693725586,-18.311735153198242,-0.0016666240990161896,0.02097858302295208,0.0004107952117919922,0.1483181118965149,0.05137859284877777,-3.0877368450164795,0.02495492435991764,0.027596596628427505,-0.07333675771951675,-0.9967935681343079,0,0,0,0,-0.05441199988126755,0.12541599571704865,0.9896639585494995,4.261250019073486,-0.8837500214576721,0.6387500166893005,-44.04399871826172,-4.900000095367432,-45.97600173950195,18.649999618530273,102084.0,-62.987613677978516,4810,165,0,0,0,2,10004,-157,0.0,True
120.85144805908203,206.94410705566406,-159.56175231933594,14.119229316711426,27.005569458007812,-18.313444137573242,-0.0003840997815132141,0.02053491398692131,-0.0019382238388061523,0.14817161858081818,0.05151890963315964,-3.0888173580169678,0.024412976577878,0.027625082060694695,-0.07327672839164734,-0.9968101978302002,0,0,0,0,-0.054899998009204865,0.12742899358272552,0.9909449815750122,4.191249847412109,-0.9275000095367432,0.5950000286102295,-44.29600143432617,-5.082000255584717,-45.597999572753906,18.670000076293945,102076.0,-62.32703399658203,4810,165,0,0,0,2,10105,-157,0.0,True
122.30083465576172,209.7174835205078,-161.4418487548828,14.117748260498047,27.02558708190918,-18.31464385986328,-0.0029949434101581573,0.017804283648729324,0.00010752677917480469,0.14753782749176025,0.051618244498968124,-3.0899786949157715,0.023839114233851433,0.02762441337108612,-0.07297549396753311,-0.9968477487564087,0,0,0,0,-0.056791000068187714,0.12669700384140015,0.9913109540939331,4.340000152587891,-0.8050000071525574,0.6212499737739563,-44.22599792480469,-4.77400016784668,-45.8640022277832,18.639999389648438,102079.0,-62.57541275024414,4810,165,0,0,0,2,10206,-157,0.0,True
123.72946166992188,212.45346069335938,-163.29537963867188,14.11597728729248,27.04486846923828,-18.316051483154297,-0.0016688033938407898,0.018962403759360313,-0.0009568333625793457,0.14720982313156128,0.051757633686065674,-3.090883255004883,0.02338733896613121,0.02765701711177826,-0.07282272726297379,-0.9968679547309875,0,0,0,0,-0.05453399941325188,0.12279299646615982,0.9884439706802368,4.182499885559082,-0.7175000309944153,0.5074999928474426,-44.32400131225586,-5.1519999504089355,-45.891998291015625,18.670000076293945,102075.0,-62.247764587402344,4805,165,0,0,0,2,10307,-157,0.0,True
125.39358520507812,215.643310546875,-165.45486450195312,14.113571166992188,27.066965103149414,-18.317155838012695,-0.0022631101310253143,0.019052617251873016,-0.0022293925285339355,0.1474451869726181,0.05151628702878952,-3.092255115509033,0.022730423137545586,0.027483131736516953,-0.07294240593910217,-0.9971484541893005,0,0,0,0,-0.054899998009204865,0.12504999339580536,0.988565981388092,4.112500190734863,-0.9975000023841858,0.4637500047683716,-44.492000579833984,-5.110000133514404,-45.555999755859375,18.670000076293945,102068.0,-61.66645431518555,4820,166,0,0,0,2,10424,-157,0.0,True
126.61039733886719,217.9776611328125,-167.0342254638672,14.11209487915039,27.083240509033203,-18.317705154418945,-0.0008814223110675812,0.018000327050685883,0.0009804964065551758,0.1470540463924408,0.05142807215452194,-3.0927889347076416,0.02245166338980198,0.0274216216057539,-0.07277564704418182,-0.9969007968902588,0,0,0,0,-0.05636399984359741,0.12620899081230164,0.9915549755096436,4.121250152587891,-0.7437499761581421,0.35875001549720764,-44.10000228881836,-4.6479997634887695,-45.45800018310547,18.6200008392334,102084.0,-62.987613677978516,4815,166,0,0,0,2,10510,-157,0.0,True
127.9721450805664,220.5919952392578,-168.8019561767578,14.110637664794922,27.100858688354492,-18.3188533782959,-0.0018349327147006989,0.018991617485880852,-0.001156628131866455,0.14686034619808197,0.051392290741205215,-3.093280792236328,0.022210167720913887,0.027383772656321526,-0.07268647104501724,-0.9969120621681213,0,0,0,0,-0.0563029982149601,0.12425699830055237,0.9892979860305786,4.15625,-0.8575000166893005,0.6912500262260437,-44.645999908447266,-5.1519999504089355,-46.25600051879883,18.649999618530273,102101.0,-64.39332580566406,4818,166,0,0,0,2,10609,-157,0.0,True
129.4235076904297,223.38058471679688,-170.6863250732422,14.109373092651367,27.119461059570312,-18.32050132751465,-0.00010911747813224792,0.01910868100821972,-0.003124535083770752,0.1462976336479187,0.05154145881533623,-3.093431234359741,0.02213759906589985,0.02744632214307785,-0.07240597903728485,-0.9969355463981628,0,0,0,0,-0.05685199797153473,0.12376900017261505,0.9877119660377502,4.252500057220459,-0.9800000190734863,0.4724999964237213,-44.28200149536133,-4.788000106811523,-45.906002044677734,18.6200008392334,102064.0,-61.33352279663086,4803,164,0,0,0,2,10709,-157,0.0,True
130.850341796875,226.1239776611328,-172.53909301757812,14.108057022094727,27.137109756469727,-18.321809768676758,-0.0011217258870601654,0.018867647275328636,-0.0017971396446228027,0.14617204666137695,0.05158834904432297,-3.093695640563965,0.02200554683804512,0.027458786964416504,-0.07234661281108856,-0.9969399571418762,0,0,0,0,-0.05593699961900711,0.12413499504327774,0.9890539646148682,4.357500076293945,-1.1200000047683716,0.5249999761581421,-44.45000076293945,-4.633999824523926,-45.68199920654297,18.670000076293945,102077.0,-62.41158676147461,4813,165,0,0,0,2,10810,-157,0.0,True
132.4435577392578,229.18975830078125,-174.60830688476562,14.106454849243164,27.15650749206543,-18.322845458984375,-0.0029146671295166016,0.016337662935256958,-2.5272369384765625e-05,0.14629961550235748,0.05164152756333351,-3.094011068344116,0.021858757361769676,0.027470894157886505,-0.07240039855241776,-0.9971234202384949,0,0,0,0,-0.054350998252630234,0.12706299126148224,0.9905179738998413,4.383749961853027,-0.7262499928474426,0.5425000190734863,-44.36600112915039,-4.480000019073486,-46.07400131225586,18.68000030517578,102078.0,-62.4908561706543,4807,165,0,0,0,2,10924,-157,0.0,True
133.66368103027344,231.53941345214844,-176.1932830810547,14.105158805847168,27.171621322631836,-18.32375717163086,-0.0020359382033348083,0.017428042367100716,-0.0017379522323608398,0.14631737768650055,0.051611196249723434,-3.094402313232422,0.0216529481112957,0.0274453554302454,-0.07242593169212341,-0.9969766736030579,0,0,0,0,-0.05569300055503845,0.1256600022315979,0.9918599724769592,4.086249828338623,-0.918749988079071,0.6387500166893005,-44.32400131225586,-4.5920000076293945,-45.63999938964844,18.68000030517578,102064.0,-61.33352279663086,4823,166,0,0,0,2,11013,-157,0.0,True
