pn,pe,pd,vn,ve,vd,an,ae,ad,roll,pitch,yaw,q0,q1,q2,q3,lat,lng,alt,sat,ax,ay,az,gx,gy,gz,mx,my,mz,baro_temp,baro_press,baro_alt,batt_voltage,batt_percent,launch_lat,launch_lng,launch_alt,system_status,system_time,rssi,snr,connectionstatus
0.0,0.0,0.0,0.0,0.0,0.0,-0.010878674685955048,-0.004397222772240639,0.0035840272903442383,0.08921357244253159,0.11183752119541168,-2.901219129562378,0.11716461181640625,0.06076258793473244,-0.03749994561076164,-0.9906742572784424,0,0,0,0,-0.12010899931192398,0.06709999591112137,0.9941779971122742,3.815000057220459,-0.9537500143051147,0.6212499737739563,-0.39970001578330994,0.070980004966259,-0.4971400201320648,17.760000228881836,101201.0,10.32618522644043,4752,159,0,0,0,65538,22229,-116,0.0,True
0.0,0.0,0.0,0.0,0.0,0.0,-0.01593656837940216,-0.007606081664562225,0.0004652738571166992,0.08845028281211853,0.11195863783359528,-2.9007108211517334,0.1174367219209671,0.06078725308179855,-0.037099096924066544,-0.990655779838562,0,0,0,0,-0.11553400009870529,0.07039400190114975,0.9914329648017883,4.068749904632568,-0.8575000166893005,0.6387500166893005,-0.40376001596450806,0.06818000227212906,-0.49966001510620117,17.729999542236328,101224.0,8.410503387451172,4744,158,0,0,0,65538,22312,-114,0.0,True
0.0,0.0,0.0,0.0,0.0,0.0,-0.015226870775222778,-0.00819292664527893,-0.0015401840209960938,0.08857036381959915,0.11203739792108536,-2.9005935192108154,0.11748914420604706,0.06083546578884125,-0.03715018182992935,-0.9906445741653442,0,0,0,0,-0.11620499938726425,0.07075999677181244,0.9892979860305786,4.243750095367432,-0.7699999809265137,0.5074999928474426,-0.40376001596450806,0.06664000451564789,-0.4988200068473816,17.760000228881836,101213.0,9.327387809753418,4752,159,0,0,0,65538,22429,-108,0.0,True
0.0,0.0,0.0,0.0,0.0,0.0,-0.015316464006900787,-0.009219801053404808,0.0005013942718505859,0.08925823867321014,0.11185556650161743,-2.9009640216827393,0.1172892227768898,0.06077892333269119,-0.03751320764422417,-0.9906579852104187,0,0,0,0,-0.11657099425792694,0.07265099883079529,0.9911890029907227,3.788749933242798,-0.6912500262260437,0.5687500238418579,-0.4057200253009796,0.06496000289916992,-0.4985400140285492,17.739999771118164,101220.0,8.74343490600586,4747,158,0,0,0,65538,22515,-114,0.0,True
0.0,0.0,0.0,0.0,0.0,0.0,-0.01679953932762146,-0.006835479289293289,-0.00019299983978271484,0.0893985703587532,0.11165443062782288,-2.901401996612549,0.11707337200641632,0.06067933514714241,-0.03760824352502823,-0.9906867742538452,0,0,0,0,-0.1143139973282814,0.07088200002908707,0.990884006023407,3.815000057220459,-1.0412499904632568,0.5862500071525574,-0.40544000267982483,0.06706000119447708,-0.4971400201320648,17.760000228881836,101211.0,9.493854522705078,4752,159,0,0,0,65538,22612,-115,0.0,True
0.0,0.0,0.0,0.0,0.0,0.0,-0.016880303621292114,-0.0072672441601753235,0.0023102760314941406,0.08947674930095673,0.11166549474000931,-2.901479721069336,0.11703218519687653,0.060687921941280365,-0.03764864057302475,-0.9906895160675049,0,0,0,0,-0.11467999964952469,0.07155299931764603,0.9933239817619324,4.033750057220459,-0.5687500238418579,0.5950000286102295,-0.4020799994468689,0.06314000487327576,-0.4933600127696991,17.709999084472656,101216.0,9.076367378234863,4749,159,0,0,0,65538,22713,-113,0.0,True
0.0,0.0,0.0,0.0,0.0,0.0,-0.016939572989940643,-0.00883437879383564,9.274482727050781e-05,0.08921041339635849,0.11183976382017136,-2.901456117630005,0.11704748868942261,0.060759037733078,-0.03750540688633919,-0.9906888008117676,0,0,0,0,-0.11480199545621872,0.07265099883079529,0.9910059571266174,4.007500171661377,-0.9975000023841858,0.39375001192092896,-0.4027799963951111,0.06678000092506409,-0.4891600012779236,17.739999771118164,101214.0,9.242834091186523,4755,159,0,0,0,65538,22815,-114,0.0,True
0.0,0.0,0.0,0.0,0.0,0.0,-0.014438755810260773,-0.008608248084783554,-0.001336216926574707,0.08923220634460449,0.11154382675886154,-2.9015631675720215,0.11700107902288437,0.06061186641454697,-0.037537530064582825,-0.99070143699646,0,0,0,0,-0.11669299751520157,0.0718579962849617,0.9893589615821838,4.051249980926514,-0.9800000190734863,0.65625,-0.40432000160217285,0.06706000119447708,-0.4943400025367737,17.729999542236328,101219.0,8.82798957824707,4754,159,0,0,0,65538,22916,-111,0.0,True
0.0,0.0,0.0,0.0,0.0,0.0,-0.01661558449268341,-0.009154468774795532,-0.00033420324325561523,0.08945770561695099,0.11159376800060272,-2.9018330574035645,0.11685951054096222,0.06064464896917343,-0.03765430301427841,-0.9907124638557434,0,0,0,0,-0.11492399871349335,0.07320000231266022,0.9905179738998413,3.841249942779541,-0.8837500214576721,0.6650000214576721,-0.41019999980926514,0.06356000155210495,-0.4937800168991089,17.739999771118164,101215.0,9.160922050476074,4755,159,0,0,0,65538,23017,-113,0.0,True
0.0,0.0,0.0,0.0,0.0,0.0,-0.01755194365978241,-0.007816098630428314,-0.0023779869079589844,0.08993478119373322,0.11142130196094513,-2.902615547180176,0.11646167933940887,0.06057232990860939,-0.03792478144168854,-0.9907532334327698,0,0,0,0,-0.11333800107240677,0.07259000092744827,0.9886879920959473,3.9462499618530273,-0.9012500047683716,0.6825000047683716,-0.406000018119812,0.06412000209093094,-0.4971400201320648,17.739999771118164,101218.0,8.90990161895752,4755,159,0,0,0,65538,23118,-113,0.0,True
0.0,0.0,0.0,0.0,0.0,0.0,-0.016054227948188782,-0.010047709569334984,-0.002166926860809326,0.08949914574623108,0.11150927096605301,-2.9027867317199707,0.11638785898685455,0.060587286949157715,-0.03770887851715088,-0.9907692670822144,0,0,0,0,-0.11529000103473663,0.07399299740791321,0.988565981388092,3.9287500381469727,-0.7787500023841858,0.5950000286102295,-0.4062800109386444,0.06748000532388687,-0.48972001671791077,17.75,101216.0,9.076367378234863,4747,158,0,0,0,65538,23220,-111,0.0,True
0.0,0.0,0.0,0.0,0.0,0.0,-0.017050988972187042,-0.0076876357197761536,0.000844120979309082,0.08949561417102814,0.11158575862646103,-2.9028127193450928,0.1163732036948204,0.060624442994594574,-0.037703271955251694,-0.9907690286636353,0,0,0,0,-0.11425299942493439,0.07210199534893036,0.9918599724769592,3.9287500381469727,-1.1462500095367432,0.6387500166893005,-0.406139999628067,0.0663600042462349,-0.48594000935554504,17.719999313354492,101187.0,11.49409008026123,4752,159,0,0,0,65538,23320,-112,0.0,True
0.0,0.0,0.0,0.0,0.0,0.0,-0.015116356313228607,-0.008573954924941063,0.0006719827651977539,0.08974234014749527,0.11158033460378647,-2.903120994567871,0.11621297895908356,0.060630280524492264,-0.037835147231817245,-0.9907823204994202,0,0,0,0,-0.11632699519395828,0.07277300208806992,0.9913719892501831,4.182499885559082,-0.9362500309944153,0.5687500238418579,-0.4068399965763092,0.06384000182151794,-0.49056002497673035,17.75,101202.0,10.24427318572998,4750,159,0,0,0,65538,23422,-112,0.0,True
0.0,0.0,0.0,0.0,0.0,0.0,-0.015241272747516632,-0.009641498327255249,0.00040137767791748047,0.08989140391349792,0.111605204641819,-2.903402090072632,0.11606857180595398,0.060645926743745804,-0.037915993481874466,-0.9907951354980469,0,0,0,0,-0.11644899845123291,0.07399299740791321,0.9910059571266174,4.059999942779541,-1.0850000381469727,0.5600000023841858,-0.4062800109386444,0.06440000236034393,-0.49000000953674316,17.729999542236328,101203.0,10.15971851348877,4745,158,0,0,0,65538,23522,-112,0.0,True
0.0,0.0,0.0,0.0,0.0,0.0,-0.015362977981567383,-0.006211217492818832,-0.00030028820037841797,0.08975271880626678,0.11164917051792145,-2.903488874435425,0.11602865904569626,0.060657985508441925,-0.03784727305173874,-0.9908018708229065,0,0,0,0,-0.11547299474477768,0.07051599770784378,0.9906399846076965,4.059999942779541,-0.9975000023841858,0.6299999952316284,-0.40334001183509827,0.06300000101327896,-0.49182000756263733,17.760000228881836,101221.0,8.661523818969727,4754,159,0,0,0,65538,23623,-112,0.0,True
0.0,0.0,0.0,0.0,0.0,0.0,-0.01594136655330658,-0.007883226498961449,-0.00041919946670532227,0.08948567509651184,0.11172021925449371,-2.903397798538208,0.11608158051967621,0.06067918613553047,-0.037707749754190445,-0.990803599357605,0,0,0,0,-0.11529000103473663,0.07197999954223633,0.9904569983482361,4.366250038146973,-1.0412499904632568,0.612500011920929,-0.4062800109386444,0.06803999841213226,-0.49028000235557556,17.739999771118164,101203.0,10.15971851348877,4739,157,0,0,0,65538,23723,-113,0.0,True
0.0,0.0,0.0,0.0,0.0,0.0,-0.014006413519382477,-0.008328244090080261,0.0003324747085571289,0.08952600508928299,0.11168771982192993,-2.9038333892822266,0.1158638671040535,0.06065741181373596,-0.03774310648441315,-0.9908252358436584,0,0,0,0,-0.11730299890041351,0.07210199534893036,0.9909449815750122,4.007500171661377,-0.9624999761581421,0.6299999952316284,-0.4069800078868866,0.06831999868154526,-0.4930800199508667,17.780000686645508,101202.0,10.24427318572998,4752,159,0,0,0,65538,23826,-112,0.0,True
0.0,0.0,0.0,0.0,0.0,0.0,-0.01156768947839737,-0.006440171971917152,-0.0009082555770874023,0.0895930603146553,0.11172252893447876,-2.9036777019500732,0.11593805998563766,0.06068147346377373,-0.03776949271559715,-0.9908139705657959,0,0,0,0,-0.11913299560546875,0.06966199725866318,0.9896029829978943,4.147500038146973,-1.0412499904632568,0.44624999165534973,-0.40306001901626587,0.06720000505447388,-0.4879000186920166,17.729999542236328,101212.0,9.409299850463867,4741,158,0,0,0,65538,23927,-112,0.0,True
0.0,0.0,0.0,0.0,0.0,0.0,-0.013733901083469391,-0.008008675649762154,0.0002764463424682617,0.08952415734529495,0.1117255762219429,-2.903500556945801,0.11602786183357239,0.060682326555252075,-0.037729810923337936,-0.99080491065979,0,0,0,0,-0.11754699796438217,0.07167499512434006,0.990884006023407,4.130000114440918,-1.0850000381469727,0.5512499809265137,-0.4032000005245209,0.06720000505447388,-0.48538002371788025,17.760000228881836,101228.0,8.077570915222168,4754,159,0,0,0,65538,24028,-111,0.0,True
0.0,0.0,0.0,0.0,0.0,0.0,-0.012956373393535614,-0.008669504895806313,-7.94529914855957e-05,0.0894339308142662,0.11171694844961166,-2.903104305267334,0.11622700840234756,0.0606803260743618,-0.037673648446798325,-0.9907832145690918,0,0,0,0,-0.11840099841356277,0.07197999954223633,0.9903959631919861,3.815000057220459,-0.9100000262260437,0.5425000190734863,-0.40306001901626587,0.06915999948978424,-0.4884600043296814,17.729999542236328,101204.0,10.07780647277832,4750,159,0,0,0,65538,24128,-111,0.0,True
0.0,0.0,0.0,0.0,0.0,0.0,-0.016468524932861328,-0.006592841818928719,0.0006997585296630859,0.0895107164978981,0.11169210076332092,-2.9033262729644775,0.11611521244049072,0.060668300837278366,-0.03771992400288582,-0.9907952547073364,0,0,0,0,-0.11461899429559708,0.07094299793243408,0.991737961769104,4.322500228881836,-1.190000057220459,0.699999988079071,-0.4075400233268738,0.06397999823093414,-0.488180011510849,17.760000228881836,101223.0,8.495057106018066,4745,158,0,0,0,65538,24230,-114,0.0,True
0.0,0.0,0.0,0.0,0.0,0.0,-0.016071662306785583,-0.00897865742444992,-0.00017774105072021484,0.08919661492109299,0.1117340624332428,-2.9031178951263428,0.11622714251279831,0.06067472696304321,-0.03755547106266022,-0.9907885193824768,0,0,0,0,-0.11541199684143066,0.07277300208806992,0.9906399846076965,3.788749933242798,-1.1375000476837158,0.7262499928474426,-0.4025000035762787,0.06565999984741211,-0.4925200045108795,17.729999542236328,101202.0,10.24427318572998,4744,158,0,0,0,65538,24331,-110,0.0,True
0.0,0.0,0.0,0.0,0.0,0.0,-0.01327022910118103,-0.006596757099032402,-0.0010464787483215332,0.08920836448669434,0.11187251657247543,-2.903050184249878,0.11625687777996063,0.060745202004909515,-0.03755083680152893,-0.9907810091972351,0,0,0,0,-0.11760799586772919,0.06972299516201019,0.9896639585494995,4.016250133514404,-0.9975000023841858,0.35875001549720764,-0.40824002027511597,0.06803999841213226,-0.4887400269508362,17.760000228881836,101199.0,10.492650985717773,4754,159,0,0,0,65538,24432,-112,0.0,True
0.0,0.0,0.0,0.0,0.0,0.0,-0.014467254281044006,-0.00966554880142212,-0.0007473230361938477,0.08873987197875977,0.112088643014431,-2.902819871902466,0.11637979000806808,0.06082925200462341,-0.03729870915412903,-0.9907709360122681,0,0,0,0,-0.11730299890041351,0.07246799767017365,0.9898470044136047,3.867500066757202,-0.7962499856948853,0.4987500011920929,-0.406139999628067,0.06831999868154526,-0.4876200258731842,17.700000762939453,101221.0,8.661523818969727,4731,157,0,0,0,65538,24533,-113,0.0,True
0.0,0.0,0.0,0.0,0.0,0.0,-0.013703688979148865,-0.006989913061261177,-0.000959932804107666,0.08875121921300888,0.11208497732877731,-2.902564287185669,0.11650598794221878,0.06083289533853531,-0.037296805530786514,-0.9907553791999817,0,0,0,0,-0.11742499470710754,0.06966199725866318,0.9897859692573547,4.121250152587891,-0.918749988079071,0.5862500071525574,-0.40488001704216003,0.07042000442743301,-0.49056002497673035,17.729999542236328,101206.0,9.911340713500977,4747,158,0,0,0,65538,24634,-106,0.0,True
0.0,0.0,0.0,0.0,0.0,0.0,-0.015772894024848938,-0.009306356310844421,-0.001188516616821289,0.0885377898812294,0.11213569343090057,-2.9020309448242188,0.11677564680576324,0.06085546314716339,-0.03717176988720894,-0.990727424621582,0,0,0,0,-0.1159610003232956,0.07210199534893036,0.9896029829978943,3.858750104904175,-0.8137500286102295,0.42875000834465027,-0.4057200253009796,0.07028000056743622,-0.47950002551078796,17.690000534057617,101192.0,11.076603889465332,4747,158,0,0,0,65538,24736,-114,0.0,True
0.0,0.0,0.0,0.0,0.0,0.0,-0.01817825436592102,-0.008442763239145279,0.00028955936431884766,0.08895143866539001,0.11212654411792755,-2.902235746383667,0.11666161566972733,0.060871269553899765,-0.03738343343138695,-0.9907314777374268,0,0,0,0,-0.11370399594306946,0.07234600186347961,0.9913719892501831,4.025000095367432,-0.8050000071525574,0.6037499904632568,-0.40501999855041504,0.06734000146389008,-0.4936400055885315,17.729999542236328,101228.0,8.077570915222168,4731,157,0,0,0,65538,24837,-114,0.0,True
0.0,0.0,0.0,0.0,0.0,0.0,-0.01696612685918808,-0.008570084348320961,-0.0004995465278625488,0.08910086750984192,0.11183688789606094,-2.9022066593170166,0.11667898297309875,0.060737140476703644,-0.037474144250154495,-0.9907347559928894,0,0,0,0,-0.11455799639225006,0.07234600186347961,0.9904569983482361,4.130000114440918,-0.8662499785423279,0.6912500262260437,-0.4075400233268738,0.06831999868154526,-0.49097999930381775,17.709999084472656,101186.0,11.57600212097168,4755,159,0,0,0,65538,24938,-111,0.0,True
0.0,0.0,0.0,0.0,0.0,0.0,-0.017373226583003998,-0.007850855588912964,0.0023310184478759766,0.08956103026866913,0.11182896792888641,-2.9025890827178955,0.11647581309080124,0.06075285002589226,-0.03771412745118141,-0.9907485842704773,0,0,0,0,-0.11443600058555603,0.07240699976682663,0.9933239817619324,3.981250047683716,-0.9887499809265137,0.7875000238418579,-0.4068399965763092,0.0659400001168251,-0.48985999822616577,17.729999542236328,101216.0,9.076367378234863,4759,160,0,0,0,65538,25040,-118,0.0,True
0.0,0.0,0.0,0.0,0.0,0.0,-0.015787683427333832,-0.009299468249082565,0.00038444995880126953,0.08986293524503708,0.11177712678909302,-2.9031214714050293,0.11620389670133591,0.06073471158742905,-0.03788299486041069,-0.9907745718955994,0,0,0,0,-0.11602199822664261,0.07368800044059753,0.9910669922828674,3.8499999046325684,-0.8837500214576721,0.6299999952316284,-0.4062800109386444,0.06524000316858292,-0.49097999930381775,17.719999313354492,101216.0,9.076367378234863,4745,158,0,0,0,65538,25142,-112,0.0,True
0.0,0.0,0.0,0.0,0.0,0.0,-0.01438681036233902,-0.007193662226200104,0.001905202865600586,0.08987858891487122,0.11188177019357681,-2.903391122817993,0.1160673126578331,0.06078226864337921,-0.037892576307058334,-0.990787923336029,0,0,0,0,-0.11718099564313889,0.0714309960603714,0.9925919771194458,4.261250019073486,-0.8224999904632568,0.5862500071525574,-0.406000018119812,0.06748000532388687,-0.4921000003814697,17.729999542236328,101206.0,9.911340713500977,4734,157,0,0,0,65538,25242,-114,0.0,True
0.0,0.0,0.0,0.0,0.0,0.0,-0.014963626861572266,-0.006476769223809242,0.00026810169219970703,0.08956547826528549,0.11190210282802582,-2.903325319290161,0.11610876768827438,0.06077544018626213,-0.03773429989814758,-0.990788996219635,0,0,0,0,-0.11620499938726425,0.07045499980449677,0.9911279678344727,3.788749933242798,-0.9275000095367432,0.45500001311302185,-0.407260000705719,0.06370000541210175,-0.4926600158214569,17.719999313354492,101205.0,9.993252754211426,4752,159,0,0,0,65538,25343,-114,0.0,True
0.0,0.0,0.0,0.0,0.0,0.0,-0.0175095796585083,-0.006929781287908554,-0.002315223217010498,0.08966770768165588,0.11185146123170853,-2.9037325382232666,0.1159052923321724,0.060748592019081116,-0.03780034929513931,-0.9908123016357422,0,0,0,0,-0.1134599968791008,0.07149200141429901,0.9888100028038025,3.6837499141693115,-0.9887499809265137,0.5074999928474426,-0.4081000089645386,0.06537999957799911,-0.4926600158214569,17.760000228881836,101221.0,8.661523818969727,4741,158,0,0,0,65538,25445,-112,0.0,True
0.0,0.0,0.0,0.0,0.0,0.0,-0.01667231321334839,-0.007803058251738548,-0.0005741119384765625,0.08976999670267105,0.11203382164239883,-2.904083013534546,0.11572367697954178,0.06083817034959793,-0.03785067796707153,-0.9908256530761719,0,0,0,0,-0.11486300081014633,0.07234600186347961,0.9903349876403809,3.841249942779541,-0.8400000333786011,0.6912500262260437,-0.40992000699043274,0.06887999922037125,-0.49014002084732056,17.729999542236328,101217.0,8.994455337524414,4727,156,0,0,0,65538,25546,-116,0.0,True
0.0,0.0,0.0,0.0,0.0,0.0,-0.01677525043487549,-0.0053065866231918335,-0.0023676156997680664,0.08970853686332703,0.11192344129085541,-2.9044392108917236,0.1155521497130394,0.06077319383621216,-0.0378376804292202,-0.9908509850502014,0,0,0,0,-0.11382599920034409,0.06984499841928482,0.9888100028038025,3.788749933242798,-0.8575000166893005,0.4637500047683716,-0.40306001901626587,0.06902000308036804,-0.4884600043296814,17.760000228881836,101215.0,9.160922050476074,4741,158,0,0,0,65538,25647,-111,0.0,True
0.0,0.0,0.0,0.0,0.0,0.0,-0.01589832454919815,-0.008223684504628181,0.001539468765258789,0.08939524739980698,0.11194448173046112,-2.9044995307922363,0.11553113907575607,0.06076439842581749,-0.037683095782995224,-0.9908595681190491,0,0,0,0,-0.11577799916267395,0.07240699976682663,0.9923479557037354,3.9725000858306885,-0.9449999928474426,0.65625,-0.407260000705719,0.06664000451564789,-0.4886000156402588,17.719999313354492,101193.0,10.994691848754883,4737,157,0,0,0,65538,25748,-112,0.0,True
0.0,0.0,0.0,0.0,0.0,0.0,-0.017310388386249542,-0.009490720927715302,0.0016399621963500977,0.08897686004638672,0.11197271198034286,-2.904024362564087,0.11577849835157394,0.060763128101825714,-0.03745974600315094,-0.990838885307312,0,0,0,0,-0.11467999964952469,0.07350499927997589,0.9925310015678406,3.893749952316284,-0.7699999809265137,0.5600000023841858,-0.4026400148868561,0.06734000146389008,-0.4865000247955322,17.75,101221.0,8.661523818969727,4739,157,0,0,0,65538,25848,-114,0.0,True
0.0,0.0,0.0,0.0,0.0,0.0,-0.01685156673192978,-0.008487295359373093,-0.001162886619567871,0.08885043859481812,0.11218834668397903,-2.9036614894866943,0.11595675349235535,0.060869310051202774,-0.03737305477261543,-0.9908151626586914,0,0,0,0,-0.1147409975528717,0.07204099744558334,0.9897859692573547,3.5,-0.7787500023841858,0.42875000834465027,-0.40460002422332764,0.06706000119447708,-0.4942000210285187,17.729999542236328,101213.0,9.327387809753418,4732,157,0,0,0,65538,25950,-112,0.0,True
0.0,0.0,0.0,0.0,0.0,0.0,-0.014880985021591187,-0.009518034756183624,0.0010144710540771484,0.08909448981285095,0.11208261549472809,-2.903529167175293,0.116017647087574,0.06083359569311142,-0.037496283650398254,-0.9908056855201721,0,0,0,0,-0.11711999773979187,0.07295599579811096,0.9916160106658936,4.068749904632568,-0.9624999761581421,0.6474999785423279,-0.40824002027511597,0.0658000037074089,-0.4877600073814392,17.770000457763672,101214.0,9.242834091186523,4741,158,0,0,0,65538,26050,-114,0.0,True
0.0,0.0,0.0,0.0,0.0,0.0,-0.017752937972545624,-0.0082231555134058,0.0014798641204833984,0.08907052874565125,0.11190704256296158,-2.903425931930542,0.11607372015714645,0.06074728071689606,-0.03749193251132965,-0.9908037781715393,0,0,0,0,-0.11394799500703812,0.07240699976682663,0.9925310015678406,3.7799999713897705,-0.7787500023841858,0.5600000023841858,-0.406139999628067,0.06972000002861023,-0.4895800054073334,17.719999313354492,101212.0,9.409299850463867,4739,157,0,0,0,65538,26151,-113,0.0,True
0.0,0.0,0.0,0.0,0.0,0.0,-0.015548542141914368,-0.007782468572258949,-0.0013825297355651855,0.08905851095914841,0.11202092468738556,-2.9033923149108887,0.11608809977769852,0.06080353632569313,-0.03747803345322609,-0.9907999634742737,0,0,0,0,-0.11571700125932693,0.07124799489974976,0.9894809722900391,4.068749904632568,-0.9887499809265137,0.5249999761581421,-0.40376001596450806,0.0663600042462349,-0.49070000648498535,17.760000228881836,101204.0,10.07780647277832,4741,158,0,0,0,65538,26252,-114,0.0,True
0.0,0.0,0.0,0.0,0.0,0.0,-0.017071843147277832,-0.007200010120868683,0.002074003219604492,0.08907531201839447,0.11182443052530289,-2.903386116027832,0.116097092628479,0.06070718169212341,-0.037497855722904205,-0.990807831287384,0,0,0,0,-0.11437499523162842,0.07130900025367737,0.9931409955024719,3.7537500858306885,-0.7262499928474426,0.5425000190734863,-0.4068399965763092,0.06412000209093094,-0.49602001905441284,17.729999542236328,101214.0,9.242834091186523,4739,157,0,0,0,65538,26353,-113,0.0,True
0.0,0.0,0.0,0.0,0.0,0.0,-0.01692892611026764,-0.006989343091845512,0.0005292892456054688,0.08899680525064468,0.11190996319055557,-2.9034652709960938,0.11607661098241806,0.06074081361293793,-0.0374535471200943,-0.9908616542816162,0,0,0,0,-0.1143139973282814,0.07088200002908707,0.9916160106658936,4.173749923706055,-0.7612500190734863,0.5862500071525574,-0.4055800139904022,0.06846000254154205,-0.49490001797676086,17.760000228881836,101198.0,10.577204704284668,4745,158,0,0,0,65538,26455,-112,0.0,True
0.0,0.0,0.0,0.0,0.0,0.0,-0.016843803226947784,-0.008421378210186958,-0.0005322098731994629,0.08881108462810516,0.11178485304117203,-2.9034152030944824,0.11608998477458954,0.06067194789648056,-0.037370506674051285,-0.9908111095428467,0,0,0,0,-0.11443600058555603,0.07204099744558334,0.9904569983482361,3.8499999046325684,-0.8400000333786011,0.5600000023841858,-0.40824002027511597,0.07070000469684601,-0.49126002192497253,17.700000762939453,101202.0,10.24427318572998,4729,156,0,0,0,65538,26555,-112,0.0,True
0.0,0.0,0.0,0.0,0.0,0.0,-0.015638843178749084,-0.009917108342051506,0.0019702911376953125,0.08878540247678757,0.11196726560592651,-2.903149127960205,0.11621806025505066,0.060765717178583145,-0.037338659167289734,-0.9907915592193604,0,0,0,0,-0.11644899845123291,0.07326100021600723,0.992652952671051,3.858750104904175,-0.9712499976158142,0.5687500238418579,-0.40389999747276306,0.07181999832391739,-0.489300012588501,17.75,101214.0,9.242834091186523,4752,159,0,0,0,65538,26657,-117,0.0,True
0.0,0.0,0.0,0.0,0.0,0.0,-0.015612483024597168,-0.007314823567867279,0.0017021894454956055,0.0890217274427414,0.11196012049913406,-2.9031307697296143,0.11622029542922974,0.060776229947805405,-0.03745555877685547,-0.9907866716384888,0,0,0,0,-0.11589999496936798,0.07094299793243408,0.9925919771194458,4.025000095367432,-1.1024999618530273,0.5687500238418579,-0.4106200039386749,0.06328000128269196,-0.49140000343322754,17.719999313354492,101200.0,10.410738945007324,4737,157,0,0,0,65538,26758,-112,0.0,True
0.0,0.0,0.0,0.0,0.0,0.0,-0.015133649110794067,-0.00681324303150177,0.0002390146255493164,0.0889958068728447,0.11205434054136276,-2.903148651123047,0.1162097156047821,0.0608210414648056,-0.03743757680058479,-0.9907854795455933,0,0,0,0,-0.11614400148391724,0.0702110007405281,0.9911279678344727,4.21750020980835,-0.831250011920929,0.7262499928474426,-0.4067000150680542,0.06831999868154526,-0.4891600012779236,17.760000228881836,101219.0,8.82798957824707,4732,157,0,0,0,65538,26861,-114,0.0,True
0.0,0.0,0.0,0.0,0.0,0.0,-0.014849334955215454,-0.008456729352474213,0.0008586645126342773,0.08850187808275223,0.1120145246386528,-2.902658700942993,0.11647016555070877,0.06078151613473892,-0.037180233746767044,-0.9907716512680054,0,0,0,0,-0.11675399541854858,0.07124799489974976,0.9916160106658936,3.9024999141693115,-1.0325000286102295,0.5862500071525574,-0.4067000150680542,0.0711200013756752,-0.49546000361442566,17.719999313354492,101202.0,10.24427318572998,4724,156,0,0,0,65538,26957,-110,0.0,True
0.0,0.0,0.0,0.0,0.0,0.0,-0.01729290932416916,-0.009337903931736946,-0.00040328502655029297,0.08905340731143951,0.11191577464342117,-2.903001070022583,0.1162848100066185,0.06075853854417801,-0.03746998310089111,-0.9907798767089844,0,0,0,0,-0.11443600058555603,0.07320000231266022,0.9905179738998413,3.5612499713897705,-1.1024999618530273,0.42000001668930054,-0.41006001830101013,0.06468000262975693,-0.4984000027179718,17.760000228881836,101225.0,8.328591346740723,4739,157,0,0,0,65538,27060,-114,0.0,True
0.0,0.0,0.0,0.0,0.0,0.0,-0.015227541327476501,-0.007817963138222694,-0.0031561851501464844,0.08912083506584167,0.11169007420539856,-2.902951240539551,0.11631296575069427,0.060651712119579315,-0.03751557692885399,-0.990780770778656,0,0,0,0,-0.11553400009870529,0.07118699699640274,0.9877119660377502,4.15625,-0.7962499856948853,0.48124998807907104,-0.4027799963951111,0.07014000415802002,-0.49532002210617065,17.729999542236328,101221.0,8.661523818969727,4734,157,0,0,0,65538,27160,-113,0.0,True
0.0,0.0,0.0,0.0,0.0,0.0,-0.01581122726202011,-0.009490201249718666,0.00014841556549072266,0.089231476187706,0.11174578219652176,-2.9031355381011963,0.11621685326099396,0.060682263225317,-0.03757259249687195,-0.9907878637313843,0,0,0,0,-0.11583899706602097,0.07326100021600723,0.990884006023407,3.9375,-0.875,0.6037499904632568,-0.40334001183509827,0.0659400001168251,-0.4995200037956238,17.760000228881836,101210.0,9.575765609741211,4731,157,0,0,0,65538,27261,-112,0.0,True
0.0,0.0,0.0,0.0,0.0,0.0,-0.016301840543746948,-0.009427886456251144,-0.0002994537353515625,0.08877275139093399,0.11203750967979431,-2.9031102657318115,0.11623591929674149,0.0608004629611969,-0.037326961755752563,-0.990787923336029,0,0,0,0,-0.11547299474477768,0.07277300208806992,0.9905179738998413,3.666249990463257,-0.7699999809265137,0.6737499833106995,-0.40880000591278076,0.07000000029802322,-0.4968600273132324,17.719999313354492,101214.0,9.242834091186523,4729,156,0,0,0,65538,27362,-109,0.0,True
0.0,0.0,0.0,0.0,0.0,0.0,-0.013863936066627502,-0.006249932572245598,0.0016862154006958008,0.08905769139528275,0.11197696626186371,-2.903221845626831,0.11617375165224075,0.06078493595123291,-0.0374751091003418,-0.9907910823822021,0,0,0,0,-0.11736399680376053,0.06954000145196915,0.9924699664115906,4.077499866485596,-1.2074999809265137,0.6825000047683716,-0.40838000178337097,0.06775999814271927,-0.4985400140285492,17.770000457763672,101205.0,9.993252754211426,4741,158,0,0,0,65538,27463,-111,0.0,True
0.0,0.0,0.0,0.0,0.0,0.0,-0.014104694128036499,-0.008771613240242004,-0.0016959309577941895,0.08900947123765945,0.11196674406528473,-2.90323543548584,0.11616873741149902,0.06077681854367256,-0.03745225444436073,-0.9907931089401245,0,0,0,0,-0.1172420009970665,0.07179699838161469,0.9889319539070129,3.841249942779541,-0.9537500143051147,0.32374998927116394,-0.4074000120162964,0.06397999823093414,-0.49014002084732056,17.75,101213.0,9.327387809753418,4734,157,0,0,0,65538,27564,-112,0.0,True
0.0,0.0,0.0,0.0,0.0,0.0,-0.015264347195625305,-0.0067766159772872925,-0.0006741881370544434,0.08961843699216843,0.11173710972070694,-2.9041366577148438,0.11570943892002106,0.06068148836493492,-0.03779511898756027,-0.9908396601676941,0,0,0,0,-0.11565599590539932,0.07094299793243408,0.9902129769325256,4.121250152587891,-0.6037499904632568,0.5774999856948853,-0.407120019197464,0.061739999800920486,-0.4888800084590912,17.770000457763672,101203.0,10.15971851348877,4750,159,0,0,0,65538,27666,-111,0.0,True
0.0,0.0,0.0,0.0,0.0,0.0,-0.01744242012500763,-0.007950525730848312,0.0005290508270263672,0.09014102071523666,0.11171039193868637,-2.9048655033111572,0.11533299088478088,0.06068463250994682,-0.0380776971578598,-0.9908721446990967,0,0,0,0,-0.11400900036096573,0.07326100021600723,0.9914939999580383,4.059999942779541,-0.9449999928474426,0.6212499737739563,-0.40852001309394836,0.06552000343799591,-0.48510000109672546,17.729999542236328,101222.0,8.576969146728516,4747,158,0,0,0,65538,27766,-116,0.0,True
0.0,0.0,0.0,0.0,0.0,0.0,-0.014343194663524628,-0.008238838985562325,-0.0006424784660339355,0.09017682820558548,0.11163756996393204,-2.9052512645721436,0.11516079306602478,0.06064067780971527,-0.038108862936496735,-0.9909446835517883,0,0,0,0,-0.1168150007724762,0.07283399999141693,0.9899689555168152,3.8499999046325684,-0.8575000166893005,0.44624999165534973,-0.41006001830101013,0.06537999957799911,-0.48580002784729004,17.780000686645508,101227.0,8.162124633789062,4741,158,0,0,0,65538,27869,-112,0.0,True
0.0,0.0,0.0,0.0,0.0,0.0,-0.015849456191062927,-0.010067198425531387,0.0013288259506225586,0.09011229872703552,0.11171867698431015,-2.905442237854004,0.11504831165075302,0.06067603453993797,-0.03808041289448738,-0.9909068942070007,0,0,0,0,-0.11608299612998962,0.07502999901771545,0.9919210076332092,4.121250152587891,-0.9624999761581421,0.5162500143051147,-0.41034001111984253,0.06453999876976013,-0.4884600043296814,17.790000915527344,101212.0,9.409299850463867,4737,157,0,0,0,65538,27969,-113,0.0,True
0.0,0.0,0.0,0.0,0.0,0.0,-0.014625884592533112,-0.007215907797217369,-7.56978988647461e-05,0.09013079851865768,0.11181735247373581,-2.9057958126068115,0.11488765478134155,0.0607166588306427,-0.038091812282800674,-0.9909722208976746,0,0,0,0,-0.11650999635457993,0.07191900163888931,0.9906399846076965,3.4825000762939453,-1.0674999952316284,0.44624999165534973,-0.4057200253009796,0.0663600042462349,-0.49112001061439514,17.770000457763672,101216.0,9.076367378234863,4731,157,0,0,0,65538,28075,-113,0.0,True
0.0,0.0,0.0,0.0,0.0,0.0,-0.016676194965839386,-0.007442912086844444,0.0021265745162963867,0.08946370333433151,0.11193004995584488,-2.9054105281829834,0.11507809907197952,0.06074400618672371,-0.037745531648397446,-0.9909113645553589,0,0,0,0,-0.11486300081014633,0.07204099744558334,0.9930799603462219,3.8237500190734863,-0.6737499833106995,0.5950000286102295,-0.4121600091457367,0.0660800039768219,-0.487060010433197,17.729999542236328,101193.0,10.994691848754883,4734,157,0,0,0,65538,28171,-112,0.0,True
0.0,0.0,0.0,0.0,0.0,0.0,-0.016191162168979645,-0.005734547972679138,0.0005971193313598633,0.08921654522418976,0.11203400045633316,-2.9053499698638916,0.11511284857988358,0.06078239157795906,-0.03761504590511322,-0.99090975522995,0,0,0,0,-0.11480199545621872,0.06990599632263184,0.9916769862174988,3.762500047683716,-1.058750033378601,0.5687500238418579,-0.406139999628067,0.06565999984741211,-0.49028000235557556,17.760000228881836,101229.0,7.995658874511719,4741,158,0,0,0,65538,28272,-113,0.0,True
0.0,0.0,0.0,0.0,0.0,0.0,-0.016605287790298462,-0.007861977443099022,-0.001662611961364746,0.08932700753211975,0.11204129457473755,-2.90529727935791,0.11523747444152832,0.06077859178185463,-0.03765295818448067,-0.9911803603172302,0,0,0,0,-0.11455799639225006,0.07197999954223633,0.9892979860305786,4.051249980926514,-0.8050000071525574,0.612500011920929,-0.40950000286102295,0.06831999868154526,-0.4891600012779236,17.780000686645508,101212.0,9.409299850463867,4745,158,0,0,0,65538,28376,-113,0.0,True
0.0,0.0,0.0,0.0,0.0,0.0,-0.013515889644622803,-0.006943253800272942,0.00010144710540771484,0.08953166753053665,0.11191343516111374,-2.905345916748047,0.115108422935009,0.06074089929461479,-0.037778232246637344,-0.9909068942070007,0,0,0,0,-0.11754699796438217,0.07075999677181244,0.9907619953155518,4.121250152587891,-0.9100000262260437,0.612500011920929,-0.4057200253009796,0.06775999814271927,-0.4888800084590912,17.760000228881836,101207.0,9.826786041259766,4729,156,0,0,0,65538,28474,-112,0.0,True
0.0,0.0,0.0,0.0,0.0,0.0,-0.01506195217370987,-0.006536738947033882,-0.0007087588310241699,0.08974766731262207,0.11187461018562317,-2.905766248703003,0.11489428579807281,0.06072619557380676,-0.03790036216378212,-0.9909270405769348,0,0,0,0,-0.11583899706602097,0.07094299793243408,0.9901520013809204,3.6050000190734863,-0.9624999761581421,0.42000001668930054,-0.40334001183509827,0.06537999957799911,-0.4933600127696991,17.770000457763672,101214.0,9.242834091186523,4734,157,0,0,0,65538,28585,-112,0.0,True
0.0,0.0,0.0,0.0,0.0,0.0,-0.014577239751815796,-0.008615236729383469,-0.0011135339736938477,0.0888676568865776,0.11182241886854172,-2.9052317142486572,0.11519021540880203,0.06065938249230385,-0.03745093569159508,-0.9909224510192871,0,0,0,0,-0.11650999635457993,0.07191900163888931,0.9896029829978943,4.077499866485596,-0.8837500214576721,0.7087500095367432,-0.40544000267982483,0.06692000478506088,-0.49154001474380493,17.719999313354492,101210.0,9.575765609741211,4737,157,0,0,0,65538,28676,-112,0.0,True
0.0,0.0,0.0,0.0,0.0,0.0,-0.015891268849372864,-0.00639091432094574,-3.451108932495117e-05,0.08901572227478027,0.11177877336740494,-2.9052040576934814,0.11521977186203003,0.060644060373306274,-0.0375232920050621,-0.9909709692001343,0,0,0,0,-0.11486300081014633,0.07027199864387512,0.9910059571266174,4.121250152587891,-0.9012500047683716,0.5425000190734863,-0.40432000160217285,0.06762000173330307,-0.49154001474380493,17.770000457763672,101213.0,9.327387809753418,4729,156,0,0,0,65538,28780,-114,0.0,True
0.0,0.0,0.0,0.0,0.0,0.0,-0.015859968960285187,-0.008647320792078972,-5.6743621826171875e-05,0.08916803449392319,0.11179914325475693,-2.905054807662964,0.11526660621166229,0.06066887453198433,-0.037596143782138824,-0.9908998012542725,0,0,0,0,-0.11547299474477768,0.07259000092744827,0.9907619953155518,4.086249828338623,-0.8662499785423279,0.5074999928474426,-0.4064200222492218,0.06790000200271606,-0.48482000827789307,17.739999771118164,101206.0,9.911340713500977,4741,158,0,0,0,65538,28877,-113,0.0,True
0.0,0.0,0.0,0.0,0.0,0.0,-0.016800008714199066,-0.006403893232345581,-0.0005272030830383301,0.08942370861768723,0.11176127940416336,-2.9052493572235107,0.1151631772518158,0.060661230236291885,-0.037731003016233444,-0.9909064173698425,0,0,0,0,-0.11400900036096573,0.07088200002908707,0.9905790090560913,3.893749952316284,-0.9887499809265137,0.5249999761581421,-0.4104800224304199,0.06775999814271927,-0.4839800000190735,17.780000686645508,101210.0,9.575765609741211,4731,157,0,0,0,65538,28980,-118,0.0,True
0.0,0.0,0.0,0.0,0.0,0.0,-0.01654241234064102,-0.005669180303812027,0.00045502185821533203,0.08977815508842468,0.11175370961427689,-2.9057984352111816,0.11488069593906403,0.06066744402050972,-0.037923652678728104,-0.9909321069717407,0,0,0,0,-0.11425299942493439,0.0705769956111908,0.9915549755096436,3.5087499618530273,-0.9275000095367432,0.6212499737739563,-0.4104800224304199,0.06062000244855881,-0.49070000648498535,17.739999771118164,101217.0,8.994455337524414,4734,157,0,0,0,65538,29078,-112,0.0,True
0.0,0.0,0.0,0.0,0.0,0.0,-0.014429405331611633,-0.009180450811982155,-0.000433504581451416,0.09014251828193665,0.11175691336393356,-2.9064643383026123,0.11453934013843536,0.060677286237478256,-0.03812418133020401,-0.9909627437591553,0,0,0,0,-0.11699799448251724,0.07387100160121918,0.9900909662246704,4.15625,-0.8662499785423279,0.49000000953674316,-0.4127200245857239,0.06468000262975693,-0.49070000648498535,17.780000686645508,101219.0,8.82798957824707,4744,158,0,0,0,65538,29180,-110,0.0,True
0.0,0.0,0.0,0.0,0.0,0.0,-0.016216300427913666,-0.007112549617886543,-0.000971674919128418,0.0898614376783371,0.11176358908414841,-2.9065513610839844,0.11450450122356415,0.06066284701228142,-0.03798719495534897,-0.9909728169441223,0,0,0,0,-0.11467999964952469,0.07197999954223633,0.9899689555168152,3.692500114440918,-0.9975000023841858,0.5687500238418579,-0.4107600152492523,0.06453999876976013,-0.4975600242614746,17.75,101216.0,9.076367378234863,4747,158,0,0,0,65538,29280,-114,0.0,True
0.0,0.0,0.0,0.0,0.0,0.0,-0.01695883274078369,-0.006241131573915482,-0.00033545494079589844,0.08977001905441284,0.1118263304233551,-2.906606435775757,0.11447842419147491,0.060687631368637085,-0.037939827889204025,-0.9909761548042297,0,0,0,0,-0.1138869971036911,0.07124799489974976,0.9907619953155518,3.7274999618530273,-0.7262499928474426,0.6387500166893005,-0.40992000699043274,0.06748000532388687,-0.4929400086402893,17.780000686645508,101209.0,9.660320281982422,4741,158,0,0,0,65538,29388,-113,0.0,True
0.0,0.0,0.0,0.0,0.0,0.0,-0.013604976236820221,-0.006342092528939247,-0.0022911429405212402,0.08982565999031067,0.11176374554634094,-2.9071102142333984,0.11422886699438095,0.06065022572875023,-0.03798637539148331,-0.9910061359405518,0,0,0,0,-0.1168150007724762,0.0705769956111908,0.9884439706802368,3.7362499237060547,-0.9275000095367432,0.5862500071525574,-0.40894001722335815,0.06468000262975693,-0.4879000186920166,17.739999771118164,101209.0,9.660320281982422,4750,159,0,0,0,65538,29482,-112,0.0,True
0.0,0.0,0.0,0.0,0.0,0.0,-0.013606220483779907,-0.007207237184047699,-0.0021570324897766113,0.08985178172588348,0.11168241500854492,-2.907301187515259,0.11413532495498657,0.06060786172747612,-0.03800998255610466,-0.9910179376602173,0,0,0,0,-0.11693699657917023,0.07149200141429901,0.9885050058364868,3.867500066757202,-0.9800000190734863,0.699999988079071,-0.40838000178337097,0.06650000065565109,-0.49084001779556274,17.770000457763672,101215.0,9.160922050476074,4741,158,0,0,0,65538,29594,-117,0.0,True
0.0,0.0,0.0,0.0,0.0,0.0,-0.01401720941066742,-0.0077077168971300125,-0.0013387203216552734,0.08947417140007019,0.11162013560533524,-2.9070091247558594,0.11429602652788162,0.06056056544184685,-0.03781735152006149,-0.9910181760787964,0,0,0,0,-0.11663199961185455,0.07173600047826767,0.9893589615821838,4.112500190734863,-1.0499999523162842,0.5687500238418579,-0.40852001309394836,0.06552000343799591,-0.49070000648498535,17.739999771118164,101197.0,10.659116744995117,4747,158,0,0,0,65538,29685,-108,0.0,True
0.0,0.0,0.0,0.0,0.0,0.0,-0.01446138322353363,-0.008524138480424881,-0.00033020973205566406,0.08938706666231155,0.11169616132974625,-2.9069876670837402,0.11430442333221436,0.06059407442808151,-0.03776945546269417,-0.9910085201263428,0,0,0,0,-0.11657099425792694,0.07259000092744827,0.9903349876403809,3.788749933242798,-1.1549999713897705,0.7087500095367432,-0.41328001022338867,0.0658000037074089,-0.4933600127696991,17.760000228881836,101214.0,9.242834091186523,4737,157,0,0,0,65538,29792,-112,0.0,True
0.0,0.0,0.0,0.0,0.0,0.0,-0.013582803308963776,-0.0088502187281847,-0.0008800029754638672,0.08922100812196732,0.11186248809099197,-2.906963348388672,0.11431727558374405,0.06066739186644554,-0.03767654299736023,-0.9910060167312622,0,0,0,0,-0.11754699796438217,0.07246799767017365,0.9896639585494995,4.016250133514404,-0.8137500286102295,0.7175000309944153,-0.4081000089645386,0.06678000092506409,-0.49154001474380493,17.75,101207.0,9.826786041259766,4737,157,0,0,0,65538,29886,-112,0.0,True
0.0,0.0,0.0,0.0,0.0,0.0,-0.01667916029691696,-0.009229842573404312,-0.0003905296325683594,0.08921279013156891,0.1119067370891571,-2.906982898712158,0.11430671066045761,0.06068846210837364,-0.037670429795980453,-0.991006076335907,0,0,0,0,-0.1147409975528717,0.0735659971833229,0.9904569983482361,3.8499999046325684,-0.8224999904632568,0.6474999785423279,-0.40362000465393066,0.0662200003862381,-0.48691999912261963,17.780000686645508,101205.0,9.993252754211426,4729,156,0,0,0,65538,29999,-112,0.0,True
0.0,0.0,0.0,0.0,0.0,0.0,-0.015326932072639465,-0.008694840595126152,-0.0022052526473999023,0.08908780664205551,0.11196296662092209,-2.906879186630249,0.11438044160604477,0.06070819869637489,-0.037599116563797,-0.9910555481910706,0,0,0,0,-0.11571700125932693,0.07246799767017365,0.988565981388092,4.112500190734863,-0.6474999785423279,0.6650000214576721,-0.406139999628067,0.06509999930858612,-0.4835600256919861,17.770000457763672,101210.0,9.575765609741211,4747,158,0,0,0,65538,30090,-113,0.0,True
0.0,0.0,0.0,0.0,0.0,0.0,-0.014833502471446991,-0.006855569779872894,0.0014618635177612305,0.0892900824546814,0.11190851777791977,-2.906834125518799,0.11437805742025375,0.0606965571641922,-0.037704091519117355,-0.990996241569519,0,0,0,0,-0.11626599729061127,0.0710039958357811,0.9922869801521301,4.121250152587891,-0.831250011920929,0.44624999165534973,-0.4058600068092346,0.06397999823093414,-0.49000000953674316,17.770000457763672,101209.0,9.660320281982422,4744,158,0,0,0,65538,30205,-114,0.0,True
0.0,0.0,0.0,0.0,0.0,0.0,-0.013037852942943573,-0.006675178185105324,0.0012003183364868164,0.08899705111980438,0.11202718317508698,-2.9068682193756104,0.11436843872070312,0.060737717896699905,-0.037552688270807266,-0.9910044074058533,0,0,0,0,-0.11797399818897247,0.07008899748325348,0.9918599724769592,3.9024999141693115,-1.0325000286102295,0.5074999928474426,-0.406139999628067,0.06734000146389008,-0.4922400116920471,17.739999771118164,101200.0,10.410738945007324,4745,158,0,0,0,65538,30289,-112,0.0,True
0.0,0.0,0.0,0.0,0.0,0.0,-0.019234180450439453,-0.00739734061062336,0.0014066696166992188,0.08949712663888931,0.11193927377462387,-2.9071438312530518,0.11421748995780945,0.06071776896715164,-0.03781422600150108,-0.9910092353820801,0,0,0,0,-0.1121789962053299,0.07277300208806992,0.992652952671051,3.5875000953674316,-0.8837500214576721,0.42875000834465027,-0.40894001722335815,0.06286000460386276,-0.48944002389907837,17.770000457763672,101204.0,10.07780647277832,4754,159,0,0,0,65538,30405,-118,0.0,True
0.0,0.0,0.0,0.0,0.0,0.0,-0.013870395720005035,-0.007486378774046898,0.0027719736099243164,0.08958765864372253,0.11200116574764252,-2.907393455505371,0.11411039531230927,0.060745805501937866,-0.03785990923643112,-0.991077184677124,0,0,0,0,-0.11760799586772919,0.07179699838161469,0.9933849573135376,4.121250152587891,-0.9100000262260437,0.6037499904632568,-0.40488001704216003,0.06328000128269196,-0.4890200197696686,17.770000457763672,101223.0,8.495057106018066,4745,158,0,0,0,65538,30494,-112,0.0,True
0.0,0.0,0.0,0.0,0.0,0.0,-0.01508873701095581,-0.010765641927719116,-0.00040847063064575195,0.08951486647129059,0.11195690184831619,-2.9074959754943848,0.11404196918010712,0.060720838606357574,-0.03783265873789787,-0.9910286664962769,0,0,0,0,-0.11669299751520157,0.07502999901771545,0.9900909662246704,4.130000114440918,-0.9800000190734863,0.612500011920929,-0.40824002027511597,0.0663600042462349,-0.49560001492500305,17.780000686645508,101215.0,9.160922050476074,4741,158,0,0,0,65538,30626,-117,0.0,True
0.0,0.0,0.0,0.0,0.0,0.0,-0.01735619455575943,-0.008167652413249016,0.0003561973571777344,0.08977732062339783,0.11190758645534515,-2.9078497886657715,0.11385994404554367,0.06070467084646225,-0.03797634318470955,-0.9910450577735901,0,0,0,0,-0.11400900036096573,0.07338299602270126,0.9913109540939331,3.8237500190734863,-1.0237499475479126,0.3762499988079071,-0.4075400233268738,0.06440000236034393,-0.49476000666618347,17.719999313354492,101211.0,9.493854522705078,4747,158,0,0,0,65538,30695,-114,0.0,True
0.0,0.0,0.0,0.0,0.0,0.0,-0.013041645288467407,-0.0055557843297719955,0.007137775421142578,0.08962693065404892,0.11202230304479599,-2.9083049297332764,0.11363618820905685,0.06074425205588341,-0.037908829748630524,-0.9910714030265808,0,0,0,0,-0.1185229942202568,0.0701499953866005,0.997776985168457,4.121250152587891,-0.7962499856948853,0.6299999952316284,-0.40950000286102295,0.06272000074386597,-0.49000000953674316,17.760000228881836,101204.0,10.07780647277832,4737,157,0,0,0,65538,30819,-114,0.0,True
0.0,0.0,0.0,0.0,0.0,0.0,-0.016366437077522278,-0.010250959545373917,-0.0017737150192260742,0.08996252715587616,0.11209181696176529,-2.9080944061279297,0.11372833698987961,0.060801759362220764,-0.038064587861299515,-0.9910508990287781,0,0,0,0,-0.11535099893808365,0.0752130001783371,0.9888709783554077,3.7362499237060547,-1.0850000381469727,0.65625,-0.4016600251197815,0.06734000146389008,-0.4873400032520294,17.729999542236328,101194.0,10.910137176513672,4744,158,0,0,0,65538,30900,-112,0.0,True
0.0,0.0,0.0,0.0,0.0,0.0,-0.016717977821826935,-0.0063123032450675964,0.0017247200012207031,0.09021182358264923,0.11194851249456406,-2.908275604248047,0.11363466084003448,0.06074151396751404,-0.03820209205150604,-0.9910601377487183,0,0,0,0,-0.11449699848890305,0.07197999954223633,0.992713987827301,3.7100000381469727,-0.699999988079071,0.6912500262260437,-0.41019999980926514,0.06790000200271606,-0.4877600073814392,17.75,101196.0,10.743671417236328,4754,159,0,0,0,65538,31015,-114,0.0,True
0.0,0.0,0.0,0.0,0.0,0.0,-0.016424372792243958,-0.00666671060025692,0.003081798553466797,0.08924095332622528,0.11226125061511993,-2.907625436782837,0.11397996544837952,0.06085323914885521,-0.03768257051706314,-0.9910377860069275,0,0,0,0,-0.115167997777462,0.07124799489974976,0.994055986404419,3.8062500953674316,-0.8137500286102295,0.6737499833106995,-0.4067000150680542,0.06831999868154526,-0.4874800145626068,17.760000228881836,101203.0,10.15971851348877,4752,159,0,0,0,65538,31104,-106,0.0,True
0.0,0.0,0.0,0.0,0.0,0.0,-0.01752113550901413,-0.009155040606856346,-0.0025508999824523926,0.08872151374816895,0.11215248703956604,-2.9069161415100098,0.11434870213270187,0.060783274471759796,-0.03741035237908363,-0.9910059571266174,0,0,0,0,-0.11376500129699707,0.07301700115203857,0.9884439706802368,3.9987499713897705,-1.0149999856948853,0.44624999165534973,-0.40922001004219055,0.06902000308036804,-0.4867800176143646,17.780000686645508,101203.0,10.15971851348877,4747,158,0,0,0,65538,31200,-111,0.0,True
0.0,0.0,0.0,0.0,0.0,0.0,-0.015217296779155731,-0.008435985073447227,0.004775524139404297,0.08916366100311279,0.11214779317378998,-2.90684175491333,0.11437229812145233,0.060807619243860245,-0.03762739151716232,-0.9909935593605042,0,0,0,0,-0.11687599867582321,0.07265099883079529,0.9954589605331421,3.9725000858306885,-0.9100000262260437,0.4375,-0.40348002314567566,0.06425999850034714,-0.4816000163555145,17.760000228881836,101221.0,8.661523818969727,4747,158,0,0,0,65538,31301,-115,0.0,True
0.0,0.0,0.0,0.0,0.0,0.0,-0.014642685651779175,-0.009384524077177048,-0.0011224746704101562,0.0891425758600235,0.11208611726760864,-2.906864643096924,0.11436298489570618,0.060775477439165115,-0.03762134909629822,-0.9909963607788086,0,0,0,0,-0.1168150007724762,0.07307799905538559,0.9894809722900391,3.981250047683716,-0.8837500214576721,0.6474999785423279,-0.406000018119812,0.06565999984741211,-0.48972001671791077,17.770000457763672,101202.0,10.24427318572998,4729,156,0,0,0,65538,31401,-111,0.0,True
0.0,0.0,0.0,0.0,0.0,0.0,-0.0156557634472847,-0.007743198424577713,0.0006086826324462891,0.0888945534825325,0.11190655827522278,-2.906778335571289,0.11441800743341446,0.060673996806144714,-0.037506550550460815,-0.9910010695457458,0,0,0,0,-0.11547299474477768,0.07161399722099304,0.9914939999580383,4.086249828338623,-0.875,0.5774999856948853,-0.40824002027511597,0.06930000334978104,-0.4876200258731842,17.770000457763672,101209.0,9.660320281982422,4750,159,0,0,0,65538,31503,-111,0.0,True
0.0,0.0,0.0,0.0,0.0,0.0,-0.017853453755378723,-0.007029294967651367,0.0011788606643676758,0.08920743316411972,0.1117863580584526,-2.9067940711975098,0.11440367251634598,0.06063208356499672,-0.03766919672489166,-0.9909990429878235,0,0,0,0,-0.11321599781513214,0.07179699838161469,0.9923479557037354,3.981250047683716,-0.9362500309944153,0.4637500047683716,-0.40306001901626587,0.06509999930858612,-0.489300012588501,17.780000686645508,101229.0,7.995658874511719,4754,159,0,0,0,65538,31603,-114,0.0,True
0.0,0.0,0.0,0.0,0.0,0.0,-0.014136143028736115,-0.004364455118775368,0.0049207210540771484,0.08911866694688797,0.11173862218856812,-2.9068045616149902,0.11440222710371017,0.06060320883989334,-0.0376284159719944,-0.9910019636154175,0,0,0,0,-0.11663199961185455,0.0685029998421669,0.995885968208313,4.09499979019165,-0.9449999928474426,0.5862500071525574,-0.40306001901626587,0.06509999930858612,-0.489300012588501,17.790000915527344,101213.0,9.327387809753418,4747,158,0,0,0,65538,31900,-123,0.0,True
0.0,0.0,0.0,0.0,0.0,0.0,-0.01735055446624756,-0.008674109354615211,0.0017807483673095703,0.08976371586322784,0.11329159885644913,-2.904636859893799,0.11528624594211578,0.06146904453635216,-0.03780772536993027,-0.9904727339744568,0,0,0,0,-0.1159610003232956,0.07332199811935425,0.9925310015678406,4.033750057220459,-0.6912500262260437,0.6474999785423279,-0.4068399965763092,0.06859999895095825,-0.48622000217437744,17.780000686645508,101212.0,9.409299850463867,4745,158,0,0,0,65538,31918,-112,0.0,True
0.0,0.0,0.0,0.0,0.0,0.0,-0.016695261001586914,-0.006770335137844086,-0.004740118980407715,0.08977646380662918,0.11331592500209808,-2.904865026473999,0.11532863229513168,0.0614546500146389,-0.037796854972839355,-0.9909070134162903,0,0,0,0,-0.11522899568080902,0.07088200002908707,0.9861869812011719,3.6050000190734863,-1.0850000381469727,0.5862500071525574,-0.4064200222492218,0.0659400001168251,-0.4839800000190735,17.780000686645508,101306.0,1.582749366760254,4739,157,0,0,0,65538,31922,-114,0.0,True
0.0,0.0,0.0,0.0,0.0,0.0,-0.01337093859910965,-0.006847890093922615,-0.0017232894897460938,0.08959969133138657,0.11263695359230042,-2.9051167964935303,0.11520138382911682,0.06110730767250061,-0.03776150196790695,-0.9908739924430847,0,0,0,0,-0.11815699934959412,0.07039400190114975,0.9888709783554077,3.7012500762939453,-0.9712499976158142,0.5249999761581421,-0.40907999873161316,0.06524000316858292,-0.4887400269508362,17.489999771118164,101200.0,10.410738945007324,4754,159,0,0,0,65538,32009,-111,0.0,True
0.0,0.0,0.0,0.0,0.0,0.0,-0.01906304806470871,-0.008211247622966766,-0.0014682412147521973,0.0895758792757988,0.11242185533046722,-2.9050536155700684,0.1152387484908104,0.06100069358944893,-0.03776073828339577,-0.9908756017684937,0,0,0,0,-0.11278899759054184,0.07307799905538559,0.9896639585494995,4.243750095367432,-0.9624999761581421,0.5950000286102295,-0.40306001901626587,0.06412000209093094,-0.488180011510849,17.559999465942383,101202.0,10.24427318572998,4741,158,0,0,0,65538,32331,-119,0.0,True
0.0,0.0,0.0,0.0,0.0,0.0,-0.014462597668170929,-0.006484445184469223,0.002585887908935547,0.09021984785795212,0.10838630050420761,-2.905411720275879,0.11506301164627075,0.05904461070895195,-0.038344692438840866,-0.9907620549201965,0,0,0,0,-0.11364299803972244,0.07222399860620499,0.993628978729248,3.990000009536743,-1.128749966621399,0.65625,-0.40824002027511597,0.06565999984741211,-0.4887400269508362,17.559999465942383,101202.0,10.24427318572998,4724,156,0,0,0,65538,32350,-114,0.0,True
0.0,0.0,0.0,0.0,0.0,0.0,-0.013879954814910889,-0.007592121139168739,0.0010274648666381836,0.0902436375617981,0.10851334035396576,-2.9055051803588867,0.11512020975351334,0.05909208953380585,-0.03833597153425217,-0.9910548329353333,0,0,0,0,-0.1143139973282814,0.07301700115203857,0.9919210076332092,4.059999942779541,-1.0149999856948853,0.6650000214576721,-0.40460002422332764,0.06706000119447708,-0.4940600097179413,17.559999465942383,101270.0,4.579139709472656,4739,157,0,0,0,65538,32354,-112,0.0,True
0.0,0.0,0.0,0.0,0.0,0.0,-0.012778371572494507,-0.008071934804320335,0.0018453598022460938,0.0898485854268074,0.10927996039390564,-2.905364513397217,0.11515660583972931,0.05945512279868126,-0.03809383511543274,-0.9909667372703552,0,0,0,0,-0.11626599729061127,0.0727119967341423,0.9925310015678406,3.963750123977661,-0.9887499809265137,0.5425000190734863,-0.4065600037574768,0.06664000451564789,-0.49154001474380493,22.520000457763672,101197.0,10.659116744995117,4760,160,0,0,0,65538,32413,-114,0.0,True
0.0,0.0,0.0,0.0,0.0,0.0,-0.013018302619457245,-0.016077209264039993,0.045614004135131836,0.09088101983070374,0.11357969045639038,-2.905503511428833,0.11494600772857666,0.061640337109565735,-0.038351431488990784,-0.9908474087715149,0,0,0,0,-0.12791699171066284,0.08326499909162521,1.034621000289917,6.684999942779541,-0.6825000047683716,1.7062499523162842,-0.40501999855041504,0.06342000514268875,-0.49028000235557556,17.520000457763672,101194.0,10.910137176513672,4750,159,0,0,0,65538,32518,-111,0.0,True
0.0,0.0,0.0,0.0,0.0,0.0,-0.026886925101280212,-0.02302144467830658,-0.0033478736877441406,0.09261638671159744,0.10924449563026428,-2.904000997543335,0.11575096100568771,0.05962372198700905,-0.039426300674676895,-0.9908354878425598,0,0,0,0,-0.10601799935102463,0.09272000193595886,0.9872849583625793,2.450000047683716,-0.5074999928474426,1.09375,-0.40907999873161316,0.06468000262975693,-0.48454001545906067,17.59000015258789,101215.0,9.160922050476074,4757,159,0,0,0,65538,32615,-114,0.0,True
0.0,0.0,0.0,0.0,0.0,0.0,-0.02657591551542282,-0.047756049782037735,0.025045394897460938,0.09607186168432236,0.11193133145570755,-2.903622627258301,0.1157623678445816,0.061161112040281296,-0.0409637950360775,-0.9906775951385498,0,0,0,0,-0.1189499944448471,0.12120699882507324,1.012355923652649,6.221250057220459,5.215000152587891,-0.5950000286102295,-0.4026400148868561,0.06034000217914581,-0.48580002784729004,17.670000076293945,101203.0,10.15971851348877,4749,159,0,0,0,65538,32726,-114,0.0,True
0.0,0.0,0.0,0.0,0.0,0.0,-0.027853146195411682,-0.1500321328639984,0.1462242603302002,0.16846059262752533,0.18724001944065094,-2.9006776809692383,0.1114586740732193,0.10253115743398666,-0.07194893062114716,-0.9859760999679565,0,0,0,0,-0.2542479932308197,0.28767600655555725,1.0907410383224487,99.62750244140625,54.005001068115234,25.103750228881836,-0.36890000104904175,0.027300000190734863,-0.5034400224685669,17.670000076293945,101201.0,10.32618522644043,4729,156,0,0,0,65538,32817,-115,0.0,True
0.0,0.0,0.0,0.0,0.0,0.0,-0.015984803438186646,-0.013847164809703827,-0.025393247604370117,0.29570692777633667,0.2805018424987793,-2.8541488647460938,0.11995819211006165,0.15771761536598206,-0.12453914433717728,-0.9723609089851379,0,0,0,0,-0.3159189820289612,0.2164890021085739,0.8964560031890869,14.822500228881836,82.06625366210938,-19.389999389648438,-0.3161199986934662,-0.0406000018119812,-0.5154800415039062,17.709999084472656,101197.0,10.659116744995117,4734,157,0,0,0,65538,32917,-112,0.0,True
0.0,0.0,0.0,0.0,0.0,0.0,-0.057752788066864014,0.01667897403240204,-0.014228880405426025,0.4602213501930237,0.36720845103263855,-2.749323844909668,0.14580383896827698,0.21803855895996094,-0.1852755844593048,-0.9471700191497803,0,0,0,0,-0.4072359800338745,0.28901800513267517,0.8520479798316956,107.52000427246094,43.3650016784668,68.67874908447266,-0.24304001033306122,-0.10080000013113022,-0.5152000188827515,17.670000076293945,101215.0,9.160922050476074,4752,159,0,0,0,65538,33018,-111,0.0,True
0.0,0.0,0.0,0.0,0.0,0.0,-0.12872359156608582,-0.09333182126283646,-0.06438058614730835,0.6353217363357544,0.4245905578136444,-2.6627395153045654,0.15641281008720398,0.26684656739234924,-0.24910901486873627,-0.9178971648216248,0,0,0,0,-0.44139599800109863,0.48092398047447205,0.6888729929924011,81.74250030517578,67.84750366210938,13.930000305175781,-0.20944000780582428,-0.172200009226799,-0.5045599937438965,17.709999084472656,101216.0,9.076367378234863,4760,160,0,0,0,65538,33120,-112,0.0,True
0.0,0.0,0.0,0.0,0.0,0.0,-0.2074473798274994,-0.13991697132587433,-0.03262317180633545,0.8430615067481995,0.5280609130859375,-2.541046380996704,0.15870928764343262,0.3442924916744232,-0.30680936574935913,-0.8731622099876404,0,0,0,0,-0.5370439887046814,0.6203089952468872,0.5702890157699585,73.5875015258789,90.79875183105469,10.543749809265137,-0.1476999968290329,-0.23646000027656555,-0.48132002353668213,17.700000762939453,101208.0,9.744874000549316,4755,159,0,0,0,65538,33221,-112,0.0,True
0.0,0.0,0.0,0.0,0.0,0.0,-0.2523380517959595,-0.201093390583992,-0.03752279281616211,1.0465893745422363,0.5987669825553894,-2.397858142852783,0.16363054513931274,0.411512166261673,-0.3519744873046875,-0.8247774243354797,0,0,0,0,-0.6066449880599976,0.7107719779014587,0.39656099677085876,51.20500183105469,85.58374786376953,4.462500095367432,-0.08988000452518463,-0.2795799970626831,-0.4333000183105469,17.75,101201.0,10.32618522644043,4759,160,0,0,0,65538,33323,-112,0.0,True
0.0,0.0,0.0,0.0,0.0,0.0,-0.2814646065235138,-0.12714864313602448,-0.010415315628051758,1.1928950548171997,0.6232818961143494,-2.2896299362182617,0.16879862546920776,0.45195287466049194,-0.38197049498558044,-0.7884176969528198,0,0,0,0,-0.6720979809761047,0.6997919678688049,0.36502400040626526,32.73374938964844,60.51499938964844,16.44124984741211,-0.05236000195145607,-0.305759996175766,-0.39424002170562744,17.739999771118164,101208.0,9.744874000549316,4741,158,0,0,0,65538,33426,-112,0.0,True
0.0,0.0,0.0,0.0,0.0,0.0,-0.306872695684433,-0.1921805590391159,-0.04948699474334717,1.2733466625213623,0.6397495865821838,-2.2210826873779297,0.17180609703063965,0.4772370159626007,-0.39324951171875,-0.7670401334762573,0,0,0,0,-0.6536149978637695,0.7348669767379761,0.25949400663375854,10.045000076293945,40.5212516784668,-1.2337499856948853,-0.024080000817775726,-0.32269999384880066,-0.36847999691963196,17.770000457763672,101221.0,8.661523818969727,4760,160,0,0,0,65538,33523,-111,0.0,True
0.0,0.0,0.0,0.0,0.0,0.0,-0.31720712780952454,-0.20985782146453857,-0.012950360774993896,1.3203579187393188,0.6822806596755981,-2.1692373752593994,0.16668067872524261,0.5037080645561218,-0.3873888850212097,-0.7541126608848572,0,0,0,0,-0.7093079686164856,0.749567985534668,0.23228800296783447,-5.932499885559082,42.84000015258789,-27.256250381469727,0.0021000001579523087,-0.31808000802993774,-0.35308000445365906,17.790000915527344,101225.0,8.328591346740723,4760,160,0,0,0,65538,33622,-110,0.0,True
0.0,0.0,0.0,0.0,0.0,0.0,-0.3267930746078491,-0.216645285487175,-0.029921233654022217,1.3713816404342651,0.7266334295272827,-2.0839016437530518,0.17102541029453278,0.5361397862434387,-0.37214913964271545,-0.7382879257202148,0,0,0,0,-0.7396249771118164,0.7119309902191162,0.20221500098705292,-28.008750915527344,50.505001068115234,-9.773750305175781,0.02590000070631504,-0.2941400110721588,-0.3351600170135498,17.770000457763672,101218.0,8.90990161895752,4752,159,0,0,0,65538,33724,-111,0.0,True
0.0,0.0,0.0,0.0,0.0,0.0,-0.328039288520813,-0.26799970865249634,-0.04197394847869873,1.4230893850326538,0.7603421211242676,-2.0211620330810547,0.16874657571315765,0.5603349804878235,-0.3642542064189911,-0.724658191204071,0,0,0,0,-0.7482869625091553,0.7202270030975342,0.13633500039577484,-4.331250190734863,52.911251068115234,-16.747499465942383,0.055720001459121704,-0.28294000029563904,-0.31387999653816223,17.770000457763672,101219.0,8.82798957824707,4752,159,0,0,0,65538,33825,-112,0.0,True
0.0,0.0,0.0,0.0,0.0,0.0,-0.3315899670124054,-0.2420629858970642,-0.10718327760696411,1.5839277505874634,0.8290244936943054,-1.8469500541687012,0.15942849218845367,0.6186022758483887,-0.34895458817481995,-0.68585205078125,0,0,0,0,-0.7441389560699463,0.6376329660415649,0.0731389969587326,3.115000009536743,91.31500244140625,-44.1349983215332,0.09366000443696976,-0.26180002093315125,-0.26768001914024353,17.760000228881836,101213.0,9.327387809753418,4741,158,0,0,0,65538,33925,-111,0.0,True
0.0,0.0,0.0,0.0,0.0,0.0,-0.27717912197113037,-0.26413071155548096,-0.13558626174926758,1.7762073278427124,0.8704131245613098,-1.6566489934921265,0.14615024626255035,0.6717455983161926,-0.33842769265174866,-0.6427417397499084,0,0,0,0,-0.7460299730300903,0.5766940116882324,-0.06831999868154526,11.550000190734863,61.72249984741211,-29.426250457763672,0.12992000579833984,-0.23282000422477722,-0.1986600011587143,17.780000686645508,101221.0,8.661523818969727,4754,159,0,0,0,65538,34027,-112,0.0,True
0.0,0.0,0.0,0.0,0.0,0.0,-0.19337497651576996,-0.2951086759567261,-0.003168821334838867,1.9322655200958252,0.9265819787979126,-1.5057429075241089,0.12014040350914001,0.7108869552612305,-0.3176916241645813,-0.6160663366317749,0,0,0,0,-0.8669930100440979,0.5628470182418823,-0.22289399802684784,-14.411250114440918,51.467498779296875,-44.6775016784668,0.15175999701023102,-0.20664000511169434,-0.15470001101493835,17.770000457763672,101216.0,9.076367378234863,4752,159,0,0,0,65538,34128,-114,0.0,True
